stop_id,stop_code,platform_code,stop_name,stop_desc,stop_lat,stop_lon,zone_id,stop_url,location_type,parent_station,stop_timezone,position,direction,wheelchair_boarding,tts_stop_name
20001001,1001,,Adams Avenue - Hot Pools,"12 Adams Avenue, Mount Maunganui",-37.632512957,176.176281425,BOP00_1A,,0,,Pacific/Auckland,,,0,
20001002,1002,,Arawata Avenue - Owens Park,"27 Arawata Avenue, Welcome Bay, Tauranga",-37.725239911,176.197798236,BOP00_1A,,0,,Pacific/Auckland,,,0,
20001005,1005,,Argyll Road - Carlisle Street,"68 Argyll Road, Greerton, Tauranga",-37.732772077,176.130735213,BOP00_1A,,0,,Pacific/Auckland,,,0,
20001006,1006,,Argyll Road - Lumsden Street,"100 Argyll Road, Greerton, Tauranga",-37.731467018123,176.12820730481,BOP00_1A,,0,,Pacific/Auckland,,,0,
20001008,1008,,Beaumaris Boulevard - Scotney Mews,"17 Beaumaris Boulevard, Bethlehem, Tauranga",-37.699914384,176.11540954,BOP00_1A,,0,,Pacific/Auckland,,,0,
20001009,1009,,Beaumaris Boulevard - Harlech Glen,"33 Beaumaris Boulevard, Bethlehem, Tauranga",-37.698492288,176.116584255,BOP00_1A,,0,,Pacific/Auckland,,,0,
20001010,1010,,Beaumaris Park,"65 Beaumaris Boulevard, Bethlehem, Tauranga",-37.696956822,176.117929012,BOP00_1A,,0,,Pacific/Auckland,,,0,
20001011,1011,,Beaumaris Boulevard - Kinloch Drive,"123 Beaumaris Boulevard, Bethlehem, Tauranga",-37.69674,176.12135,BOP00_1A,,0,,Pacific/Auckland,,,0,
20001012,1012,,Beaumaris Boulevard - Caernarvon Rise,"28 Beaumaris Boulevard, Bethlehem, Tauranga",-37.700134087,176.11541042,BOP00_1A,,0,,Pacific/Auckland,,,0,
20001013,1013,,Brookfield - Bellevue Road (Stand A),"89 Bellevue Road, Brookfield, Tauranga",-37.689638405,176.134504974,BOP00_1A,,0,,Pacific/Auckland,,,0,
20001014,1014,,Brookfield - Bellevue Road (Stand B),"94 Bellevue Road, Brookfield, Tauranga",-37.689585633,176.134127158,BOP00_1A,,0,,Pacific/Auckland,,,0,
20001015,1015,,Bellevue Road - Regent Street,"138 Bellevue Road, Brookfield, Tauranga",-37.687450565,176.131225477,BOP00_1A,,0,,Pacific/Auckland,,,0,
20001016,1016,,Bellevue Road - Upland Street,"178A Bellevue Road, Bellevue, Tauranga",-37.685482022,176.128501512,BOP00_1A,,0,,Pacific/Auckland,,,0,
20001017,1017,,Bellevue Road - Windsor Road,"167 Bellevue Road, Bellevue, Tauranga",-37.685407444,176.128579291,BOP00_1A,,0,,Pacific/Auckland,,,0,
20001018,1018,,Bellevue Road - Brookfield Terrace,"135 Bellevue Road, Brookfield, Tauranga",-37.687375374,176.131304567,BOP00_1A,,0,,Pacific/Auckland,,,0,
20001019,1019,,Bethlehem Heights - Kildonan Place,"88 Bethlehem Heights, Bethlehem, Tauranga",-37.698748839,176.120424787,BOP00_1A,,0,,Pacific/Auckland,,,0,
20001020,1020,,Bethlehem Heights - Sissinghurst Court,"52 Bethlehem Heights, Bethlehem, Tauranga",-37.69965716,176.118632392,BOP00_1A,,0,,Pacific/Auckland,,,0,
20001021,1021,,Bethlehem Heights - Richmond Heights,"22 Bethlehem Heights, Bethlehem, Tauranga",-37.700295654,176.117118139,BOP00_1A,,0,,Pacific/Auckland,,,0,
20001022,1022,,Bureta Shopping Centre,"1/33 Bureta Road, Otumoetai, Tauranga",-37.668409623,176.15318157,BOP00_1A,,0,,Pacific/Auckland,,,0,
20001023,1023,,Bureta Shopping Centre,"1/35 Bureta Road, Otumoetai, Tauranga",-37.668973685,176.153140987,BOP00_1A,,0,,Pacific/Auckland,,,0,
20001024,1024,,Cambridge Road,"127 Cambridge Road, Bethlehem, Tauranga",-37.701752958,176.129813934,BOP00_1A,,0,,Pacific/Auckland,,,0,
20001026,1026,,Cambridge Road - Fronting R286,"286 Cambridge Road, Bethlehem, Tauranga",-37.710426535549885,176.12042381002954,BOP00_1A,,0,,Pacific/Auckland,,,0,
20001027,1027,,Cambridge Park,"256 Cambridge Road, Bethlehem, Tauranga",-37.706172668,176.122795856,BOP00_1A,,0,,Pacific/Auckland,,,0,
20001028,1028,,Cambridge Road - Westminster Drive,"104 Cambridge Road, Bethlehem, Tauranga",-37.70087494,176.130715825,BOP00_1A,,0,,Pacific/Auckland,,,0,
20001029,1029,,Cambridge Road - Chester Street,"2A Chester Street, Judea, Tauranga",-37.697840885,176.133478407,BOP00_1A,,0,,Pacific/Auckland,,,0,
20001031,1031,,Cambridge Road - Te Reti Views,"39 Cambridge Road, Judea, Tauranga",-37.698110376,176.13299689,BOP00_1A,,0,,Pacific/Auckland,,,0,
20001032,1032,,Cambridge Road - Opp. Bethlehem Views,"179 Cambridge Road, Bethlehem, Tauranga",-37.703695469,176.127530446,BOP00_1A,,0,,Pacific/Auckland,,,0,
20001033,1033,,Cameron Road - Second Avenue,"290 Cameron Road, Tauranga",-37.689076181,176.165234955,BOP00_1A,,0,,Pacific/Auckland,,,0,
20001034,1034,,Cameron Road - Fourth Avenue - South,"342 Cameron Road, Tauranga",-37.690661477,176.164675561,BOP00_1A,,0,,Pacific/Auckland,,,0,
20001035,1035,,Cameron Road - Fifth Avenue,"385 Cameron Road, Tauranga",-37.69214726,176.163684654,BOP00_1A,,0,,Pacific/Auckland,,,0,
20001036,1036,,Cameron Road - Eighth Avenue -  South,"408 Cameron Road, Tauranga",-37.694436395,176.162112317,BOP00_1A,,0,,Pacific/Auckland,,,0,
20001037,1037,,Cameron Road - Pak 'n Save,"483 Cameron Road, Tauranga",-37.6965898430692,176.160567034485,BOP00_1A,,0,,Pacific/Auckland,,,0,
20001039,1039,,Cameron Road - Tauranga Boys' College,"664 Cameron Road, Tauranga South, Tauranga",-37.702026976,176.155853713,BOP00_1A,,0,,Pacific/Auckland,,,0,
20001040,1040,,Cameron Road - Sixteenth Avenue - South,"748 Cameron Road, Tauranga South, Tauranga",-37.704794888,176.153094761,BOP00_1A,,0,,Pacific/Auckland,,,0,
20001041,1041,,Opposite Tauranga Hospital,"2/850 Cameron Road, Tauranga South, Tauranga",-37.708357282,176.149141753,BOP00_1A,,0,,Pacific/Auckland,,,0,
20001042,1042,,Cameron Road - Tauranga Girls' College,"929B Cameron Road, Gate Pa, Tauranga",-37.712333576,176.143951043,BOP00_1A,,0,,Pacific/Auckland,,,0,
20001043,1043,,Cameron Road - Gate Pa School,"907 Cameron Road, Gate Pa, Tauranga",-37.7112143599002,176.145280084074,BOP00_1A,,0,,Pacific/Auckland,,,0,
20001044,1044,,Gate Pa Shopping Centre,"1009 Cameron Road, Gate Pa, Tauranga",-37.714421613,176.141266668,BOP00_1A,,0,,Pacific/Auckland,,,0,
20001045,1045,,Gate Pa Domain,"1100 Cameron Road, Gate Pa, Tauranga",-37.716052218,176.139069292,BOP00_1A,,0,,Pacific/Auckland,,,0,
20001046,1046,,Cameron Road - Church Street,"1126 Cameron Road, Gate Pa, Tauranga",-37.717670561,176.137950399,BOP00_1A,,0,,Pacific/Auckland,,,0,
20001047,1047,,Cameron Road - Sheppard Street,"1222 Cameron Road, Gate Pa, Tauranga",-37.722026229,176.135683852,BOP00_1A,,0,,Pacific/Auckland,,,0,
20001048,1048,,Cameron Road - Greerton Village,"1272 Cameron Road, Gate Pa, Tauranga",-37.725048978,176.133708382,BOP00_1A,,0,,Pacific/Auckland,,,0,
20001049,1049,,Cameron Road - Spring Street,"171 Cameron Road, Tauranga",-37.685075633,176.1656353,BOP00_1A,,0,,Pacific/Auckland,,,0,
20001050,1050,,Cameron Road - First Avenue,"265 Cameron Road, Tauranga",-37.688048418,176.165132536,BOP00_1A,,0,,Pacific/Auckland,,,0,
20001051,1051,,Cameron Road - Fourth Avenue North,"349 Cameron Road, Tauranga",-37.690967258,176.16416694,BOP00_1A,,0,,Pacific/Auckland,,,0,
20001052,1052,,Cameron Road - Sixth Avenue,"389 Cameron Road, Tauranga",-37.692838106,176.162885237,BOP00_1A,,0,,Pacific/Auckland,,,0,
20001053,1053,,Cameron Road - Eighth Avenue - North,"409 Cameron Road, Tauranga",-37.694380484,176.161820456,BOP00_1A,,0,,Pacific/Auckland,,,0,
20001054,1054,,Cameron Road - Opposite Pak 'n Save,"483 Cameron Road, Tauranga",-37.6964029613206,176.160435553865,BOP00_1A,,0,,Pacific/Auckland,,,0,
20001055,1055,,Cameron Road - Eleventh Avenue,"531 Cameron Road, Tauranga",-37.6977775029987,176.159498437504,BOP00_1A,,0,,Pacific/Auckland,,,0,
20001056,1056,,Cameron Road - Twelfth Avenue,"607 Cameron Road, Tauranga South, Tauranga",-37.7000230728241,176.157501344451,BOP00_1A,,0,,Pacific/Auckland,,,0,
20001057,1057,,Cameron Road - Fourteenth Avenue,"697 Cameron Road, Tauranga South, Tauranga",-37.70188442,176.155524526,BOP00_1A,,0,,Pacific/Auckland,,,0,
20001058,1058,,Cameron Road - Sixteenth Avenue - North,"151 Sixteenth Avenue, Tauranga South, Tauranga",-37.704824058543,176.15269548425,BOP00_1A,,0,,Pacific/Auckland,,,0,
20001059,1059,,Tauranga Hospital,"2/850 Cameron Road, Tauranga South, Tauranga",-37.7083447992469,176.148907705198,BOP00_1A,,0,,Pacific/Auckland,,,0,
20001060,1060,,Cameron Road - Twentyfirst Avenue,"895 Cameron Road, Gate Pa, Tauranga",-37.7107040371255,176.145816112252,BOP00_1A,,0,,Pacific/Auckland,,,0,
20001061,1061,,Cameron Road - Twentythird Avenue,"929B Cameron Road, Gate Pa, Tauranga",-37.712129568,176.143815902,BOP00_1A,,0,,Pacific/Auckland,,,0,
20001062,1062,,Opposite Gate Pa Shopping Centre,"1007 Cameron Road, Gate Pa, Tauranga",-37.7142167135114,176.141324776161,BOP00_1A,,0,,Pacific/Auckland,,,0,
20001063,1063,,Cameron Road -  Opposite Church Street,"1131 Cameron Road, Gate Pa, Tauranga",-37.717666218,176.13777524,BOP00_1A,,0,,Pacific/Auckland,,,0,
20001064,1064,,Cameron Road - Kent Street,"1209 Cameron Road, Gate Pa, Tauranga",-37.721774148,176.135617567,BOP00_1A,,0,,Pacific/Auckland,,,0,
20001065,1065,,Greerton Hall,"1247 Cameron Road, Gate Pa, Tauranga",-37.724694893,176.133670989,BOP00_1A,,0,,Pacific/Auckland,,,0,
20001066,1066,,Cameron Road - Maleme Street,"1480 Cameron Road, Greerton, Tauranga",-37.733652872,176.124590275,BOP00_1A,,0,,Pacific/Auckland,,,0,
20001067,1067,,Chadwick Road - Mansels Road,"101 Chadwick Road, Greerton, Tauranga",-37.72895267948467,176.1380176086717,BOP00_1A,,0,,Pacific/Auckland,,,0,
20001068,1068,,Chadwick Rd - Harmens Way,"82 Chadwick Rd, Greerton, Tauranga",-37.729066122,176.13792838,BOP00_1A,,0,,Pacific/Auckland,,,0,
20001069,1069,,Castlewold Drive - Hidcote Place,"5 Castlewold Drive, Bethlehem, Tauranga",-37.710336635,176.117094117,BOP00_1A,,0,,Pacific/Auckland,,,0,
20001070,1070,,Castlewold Drive - Belvedere Reserve,"28 Castlewold Drive, Bethlehem, Tauranga",-37.70937784,176.117689217,BOP00_1A,,0,,Pacific/Auckland,,,0,
20001071,1071,A,Greerton - Chadwick Road (Stand A),"179 Chadwick Road, Greerton, Tauranga",-37.727065035,176.134536853,BOP00_1A,,0,,Pacific/Auckland,,,0,
20001072,1072,B,Greerton - Chadwick Road (Stand B),"184 Chadwick Road, Greerton, Tauranga",-37.7267864647234,176.133792664,BOP00_1A,,0,,Pacific/Auckland,,,0,
20001074,1074,,Cheyne Road - Tawai Dell,"185 Cheyne Road, Pyes Pa, Tauranga",-37.739218187,176.133587349,BOP00_1A,,0,,Pacific/Auckland,,,0,
20001078,1078,,Cheyne Road - Annandale Drive,"45 Cheyne Road, Pyes Pa, Tauranga",-37.739234163,176.126715821,BOP00_1A,,0,,Pacific/Auckland,,,0,
20001079,1079,,Cheyne Road - Opposite Taramea Rise,"65 Cheyne Road, Pyes Pa, Tauranga",-37.739112491,176.128626859,BOP00_1A,,0,,Pacific/Auckland,,,0,
20001080,1080,,Cheyne Road - Tawhiri View,"103 Cheyne Road, Pyes Pa, Tauranga",-37.737891291,176.130807956,BOP00_1A,,0,,Pacific/Auckland,,,0,
20001083,1083,,Clarke Street - Matthew Street,"39A Clarke Street, Gate Pa, Tauranga",-37.708627068,176.144942166,BOP00_1A,,0,,Pacific/Auckland,,,0,
20001085,1085,,Clarke Street - Seventeenth Avenue,"150 Seventeenth Avenue, Tauranga South, Tauranga",-37.705393593,176.148704324,BOP00_1A,,0,,Pacific/Auckland,,,0,
20001086,1086,,Clarke Street - St Johns,"150 Seventeenth Avenue, Tauranga South, Tauranga",-37.705341372,176.14887825,BOP00_1A,,0,,Pacific/Auckland,,,0,
20001087,1087,,Coopers Road - Opposite Leonard Place,"104 Coopers Road, Gate Pa, Tauranga",-37.71551490273094,176.13355910963833,BOP00_1A,,0,,Pacific/Auckland,,,0,
20001089,1089,,Coopers Road - Tuthill Street,"21 Coopers Road, Gate Pa, Tauranga",-37.718634816,176.131859449,BOP00_1A,,0,,Pacific/Auckland,,,0,
20001090,1090,,Coopers Road - Vanda Place,"69 Coopers Road, Gate Pa, Tauranga",-37.716842182,176.132784078,BOP00_1A,,0,,Pacific/Auckland,,,0,
20001091,1091,,Coopers Road - Leonard Place,"83 Coopers Road, Gate Pa, Tauranga",-37.715487726,176.133472831,BOP00_1A,,0,,Pacific/Auckland,,,0,
20001093,1093,,Cook Street - Opposite Faulkner Street,"31 Cook Street, Gate Pa, Tauranga",-37.709469815,176.142002366,BOP00_1A,,0,,Pacific/Auckland,,,0,
20001094,1094,,Cook Street - Opposite Ward Street,"1 Cook Street, Gate Pa, Tauranga",-37.711003231,176.140517836,BOP00_1A,,0,,Pacific/Auckland,,,0,
20001095,1095,,Cook Street - Ward Street,"2 Ward Street, Gate Pa, Tauranga",-37.711134143,176.14033914,BOP00_1A,,0,,Pacific/Auckland,,,0,
20001096,1096,,Cook Street - Faulkner Street,"46 Cook Street, Gate Pa, Tauranga",-37.709239621,176.142184446,BOP00_1A,,0,,Pacific/Auckland,,,0,
20001097,1097,,Grenada Street - Opposite Bay Radiology,"3 Grenada Street, Mount Maunganui",-37.674645321,176.228645011,BOP00_1A,,0,,Pacific/Auckland,,,0,
20001100,1100,,Domain Rd - Opposite Supermarket,"29 Domain Road, Papamoa Beach, Papamoa",-37.701833206,176.284856201,BOP00_1A,,0,,Pacific/Auckland,,,0,
20001101,1101,,Devonport Road - Seventh Avenue,"281 Devonport Road, Tauranga",-37.695218672,176.164993478,BOP00_1A,,0,,Pacific/Auckland,,,0,
20001102,1102,,Devonport Road - Opposite Tenth Avenue,"330 Devonport Road, Tauranga",-37.6976125066495,176.163459514499,BOP00_1A,,0,,Pacific/Auckland,,,0,
20001104,1104,,Devonport Road - Tenth Avenue,"317 Devonport Road, Tauranga",-37.697577487,176.163378278,BOP00_1A,,0,,Pacific/Auckland,,,0,
20001105,1105,,Devonport Road - Second Avenue,"184 Devonport Road, Tauranga",-37.690021148,176.16843106,BOP00_1A,,0,,Pacific/Auckland,,,0,
20001106,1106,,Devonport Road - Memorial Park,"281 Devonport Road, Tauranga",-37.695162256,176.165169072,BOP00_1A,,0,,Pacific/Auckland,,,0,
20001107,1107,,Maungatapu Road - Vine Avenue,"207 Maungatapu Road, Maungatapu, Tauranga",-37.720115452,176.175407699,BOP00_1A,,0,,Pacific/Auckland,,,0,
20001108,1108,,Devonport Road - Third Avenue,"1 Third Avenue, Tauranga",-37.69038226,176.168142742,BOP00_1A,,0,,Pacific/Auckland,,,0,
20001112,1112,,Dickson Road - Douglas Place,"105 Dickson Road, Papamoa Beach, Papamoa",-37.7024463309065,176.295455559419,BOP00_1A,,0,,Pacific/Auckland,,,0,
20001113,1113,,Dickson Road - Fronting Number 140,"138 Dickson Road, Papamoa Beach, Papamoa",-37.7035686910342,176.298446709388,BOP00_1A,,0,,Pacific/Auckland,,,0,
20001114,1114,,Dickson Road - Fronting Number 137,"137 Dickson Road, Papamoa Beach, Papamoa",-37.70351644765786,176.29860098258519,BOP00_1A,,0,,Pacific/Auckland,,,0,
20001115,1115,,Dickson Road - Opposite Longview Drive,"167 Dickson Road, Papamoa Beach, Papamoa",-37.704595918,176.301893134,BOP00_1A,,0,,Pacific/Auckland,,,0,
20001116,1116,,Dickson Road - Fronting Number 195,"195 Dickson Road, Papamoa Beach, Papamoa",-37.705448522,176.304483283,BOP00_1A,,0,,Pacific/Auckland,,,0,
20001117,1117,,Dickson Road - Longview Drive,"181 Dickson Road, Papamoa Beach, Papamoa",-37.7051116,176.3033502,BOP00_1A,,0,,Pacific/Auckland,,,0,
20001118,1118,,Dickson Road - Grant Place,"227 Dickson Road, Papamoa Beach, Papamoa",-37.70640807,176.307139644,BOP00_1A,,0,,Pacific/Auckland,,,0,
20001119,1119,,Dickson Road - Dalton Drive,"242 Dickson Road, Papamoa Beach, Papamoa",-37.70679361,176.308124736,BOP00_1A,,0,,Pacific/Auckland,,,0,
20001120,1120,,Dickson Road - McCallum Place,"261 Dickson Road, Papamoa Beach, Papamoa",-37.7073300575345,176.310206804713,BOP00_1A,,0,,Pacific/Auckland,,,0,
20001121,1121,,Dickson Road - Opposite Butterworth Crescent,"285 Dickson Road, Papamoa Beach, Papamoa",-37.708100994,176.312333919,BOP00_1A,,0,,Pacific/Auckland,,,0,
20001122,1122,,Dickson Road - Simpson Reserve,"308 Dickson Road, Papamoa Beach, Papamoa",-37.708864615,176.31370885,BOP00_1A,,0,,Pacific/Auckland,,,0,
20001123,1123,,Dickson Road - Butterworth Crescent,"288 Dickson Road, Papamoa Beach, Papamoa",-37.708075331,176.311936786,BOP00_1A,,0,,Pacific/Auckland,,,0,
20001124,1124,,Dickson Road - Alexander Place,"156A Dickson Road, Papamoa Beach, Papamoa",-37.704078979,176.299978359,BOP00_1A,,0,,Pacific/Auckland,,,0,
20001125,1125,,Dickson Road - Opposite Douglas Place,"104 Dickson Road, Papamoa Beach, Papamoa",-37.702740740948606,176.29580242743856,BOP00_1A,,0,,Pacific/Auckland,,,0,
20001126,1126,,Dickson Road - Papamoa Primary School,"312 Dickson Road, Papamoa Beach, Papamoa",-37.70933775792432,176.31414325294196,BOP00_1A,,0,,Pacific/Auckland,,,0,
20001127,1127,,Dive Crescent - The Cargo Shed,"32 Dive Crescent, Tauranga",-37.6794826,176.170856887,BOP00_1A,,0,,Pacific/Auckland,,,0,
20001128,1128,,Dive Crescent - Opposite The Cargo Shed,"36 Dive Crescent, Tauranga",-37.679285057,176.170693561,BOP00_1A,,0,,Pacific/Auckland,,,0,
20001129,1129,,Domain Road - Medical Centre,"61B Domain Road, Papamoa Beach, Papamoa",-37.704820966,176.284897945,BOP00_1A,,0,,Pacific/Auckland,,,0,
20001130,1130,,Domain Road - Opposite Pacific Cove Drive,"73 Domain Road, Papamoa Beach, Papamoa",-37.705960692,176.284873276,BOP00_1A,,0,,Pacific/Auckland,,,0,
20001131,1131,,Domain Road - Gravatt Road,"30A Domain Road, Papamoa Beach, Papamoa",-37.701434102,176.284705548,BOP00_1A,,0,,Pacific/Auckland,,,0,
20001132,1132,,Doncaster Drive - Domain Road,"3 Doncaster Drive, Papamoa Beach, Papamoa",-37.707000257,176.285466881,BOP00_1A,,0,,Pacific/Auckland,,,0,
20001133,1133,,Doncaster Drive - Longstead Avenue,"10A Doncaster Drive, Papamoa Beach, Papamoa",-37.707110556,176.286306052,BOP00_1A,,0,,Pacific/Auckland,,,0,
20001136,1136,,Eleventh Avenue - Memorial Park,"34 Eleventh Avenue, Tauranga",-37.700346357,176.163871685,BOP00_1A,,0,,Pacific/Auckland,,,0,
20001137,1137,,Eleventh Avenue - Opposite Memorial Park,"38 Eleventh Avenue, Tauranga",-37.700287967,176.163497868,BOP00_1A,,0,,Pacific/Auckland,,,0,
20001138,1138,,Eleventh Avenue - Christopher Street,"177 Eleventh Avenue, Tauranga",-37.69774331001045,176.15776545516457,BOP00_1A,,0,,Pacific/Auckland,,,0,
20001140,1140,,Esmeralda Street - Arawata Avenue,"33 Arawata Avenue, Welcome Bay, Tauranga",-37.724703534,176.197117897,BOP00_1A,,0,,Pacific/Auckland,,,0,
20001141,1141,,Esmeralda Street - Welcome Bay Road,"6 Esmeralda Street, Welcome Bay, Tauranga",-37.725057685,176.194256657,BOP00_1A,,0,,Pacific/Auckland,,,0,
20001144,1144,,Evans Road - Gravatt Road,"137 Evans Road, Papamoa Beach, Papamoa",-37.694914181,176.259334487,BOP00_1A,,0,,Pacific/Auckland,,,0,
20001146,1146,,Evans Road - Gloucester Road,"130 Evans Road, Papamoa Beach, Papamoa",-37.694403592,176.259190328,BOP00_1A,,0,,Pacific/Auckland,,,0,
20001147,1147,,Tahatai Coast School,"110 Evans Road, Papamoa Beach, Papamoa",-37.6927484968157,176.259276962896,BOP00_1A,,0,,Pacific/Auckland,,,0,
20001149,1149,A1,Bayfair - Farm Street (Stand A1),"59 Farm Street, Mount Maunganui",-37.6737316507882,176.224943046079,BOP00_1A,,0,,Pacific/Auckland,,,0,
20001150,1150,,Fifteenth Avenue - Grace Road - East,"89 Fifteenth Avenue, Tauranga South, Tauranga",-37.708119117,176.161102698,BOP00_1A,,0,,Pacific/Auckland,,,0,
20001151,1151,,Fifteenth Avenue - Mayfair Street,"31 Fifteenth Avenue, Tauranga South, Tauranga",-37.71051399269907,176.1649279188826,BOP00_1A,,0,,Pacific/Auckland,,,0,
20001152,1152,,Fifteenth Avenue - Grace Road - West,"86 Fifteenth Avenue, Tauranga South, Tauranga",-37.708229845,176.160988363,BOP00_1A,,0,,Pacific/Auckland,,,0,
20001153,1153,,Fifteenth Avenue - Burrows Street,"30 Fifteenth Avenue, Tauranga South, Tauranga",-37.70982452886781,176.16355529364796,BOP00_1A,,0,,Pacific/Auckland,,,0,
20001154,1154,,Fraser Cove,"261A Fraser Street, Tauranga South, Tauranga",-37.713800179,176.151613754,BOP00_1A,,0,,Pacific/Auckland,,,0,
20001155,1155,,Fraser Street - Oxford Street,"368 Fraser Street, Parkvale, Tauranga",-37.718790749,176.146540268,BOP00_1A,,0,,Pacific/Auckland,,,0,
20001156,1156,,Fraser Street -  Esk Street,"454 Fraser Street, Parkvale, Tauranga",-37.723161256,176.144563736,BOP00_1A,,0,,Pacific/Auckland,,,0,
20001157,1157,,Fraser Street - Yatton Park,"515 Fraser Street, Parkvale, Tauranga",-37.726429273,176.142612886,BOP00_1A,,0,,Pacific/Auckland,,,0,
20001159,1159,,Opposite Fraser Cove,"261A Fraser Street, Tauranga South, Tauranga",-37.714150565,176.151573319,BOP00_1A,,0,,Pacific/Auckland,,,0,
20001161,1161,,Fraser Street - Kotare Crescent,"36 Fraser Street, Tauranga South, Tauranga",-37.702004861,176.164030572,BOP00_1A,,0,,Pacific/Auckland,,,0,
20001162,1162,,Fraser Street - Fourteenth Avenue - South,"110 Fraser Street, Tauranga South, Tauranga",-37.706041934,176.159859359,BOP00_1A,,0,,Pacific/Auckland,,,0,
20001163,1163,,Fraser Street - Sixteenth Avenue,"70 Sixteenth Avenue, Tauranga South, Tauranga",-37.708434801,176.157395638,BOP00_1A,,0,,Pacific/Auckland,,,0,
20001166,1166,,Fraser Street - Tauranga Intermediate,"218 Fraser Street, Tauranga South, Tauranga",-37.712317666,176.153305664,BOP00_1A,,0,,Pacific/Auckland,,,0,
20001167,1167,,Fraser Street - Lloyd Street,"314 Fraser Street, Parkvale, Tauranga",-37.716194801,176.149359185,BOP00_1A,,0,,Pacific/Auckland,,,0,
20001168,1168,,Fraser Street - Hampton Terrace,"404 Fraser Street, Parkvale, Tauranga",-37.721164899,176.145484527,BOP00_1A,,0,,Pacific/Auckland,,,0,
20001169,1169,,Fraser Street - Courtney Road,"365 Fraser Street, Parkvale, Tauranga",-37.718863529,176.146291787,BOP00_1A,,0,,Pacific/Auckland,,,0,
20001170,1170,,Fraser Street - Opposite Waimapu Street,"559 Fraser Street, Greerton, Tauranga",-37.7287750661371,176.140585057724,BOP00_1A,,0,,Pacific/Auckland,,,0,
20001171,1171,,Fraser Street - Yatton Street,"517 Fraser Street, Parkvale, Tauranga",-37.726405423,176.142420773,BOP00_1A,,0,,Pacific/Auckland,,,0,
20001172,1172,,Fraser Street - Opposite Esk Street,"451 Fraser Street, Parkvale, Tauranga",-37.72307442,176.144464145,BOP00_1A,,0,,Pacific/Auckland,,,0,
20001173,1173,,Gravatt Road - Santa Barbara Drive,"173 Gravatt Road, Papamoa Beach, Papamoa",-37.69832382,176.268430371,BOP00_1A,,0,,Pacific/Auckland,,,0,
20001174,1174,,Fraser Street - Page Street,"321 Fraser Street, Parkvale, Tauranga",-37.716084941,176.149324235,BOP00_1A,,0,,Pacific/Auckland,,,0,
20001175,1175,,Fraser Street - Eighteenth Avenue,"193 Fraser Street, Tauranga South, Tauranga",-37.710831743,176.154667882,BOP00_1A,,0,,Pacific/Auckland,,,0,
20001176,1176,,Fraser Street - Seventeenth Avenue,"167 Fraser Street, Tauranga South, Tauranga",-37.709269863,176.156332299,BOP00_1A,,0,,Pacific/Auckland,,,0,
20001177,1177,,Fraser Street - Fourteenth Avenue - North,"105 Fraser Street, Tauranga South, Tauranga",-37.705891177,176.159798393,BOP00_1A,,0,,Pacific/Auckland,,,0,
20001178,1178,,Fraser Street - Thirteenth Avenue - North,"71 Fraser Street, Tauranga South, Tauranga",-37.70392463,176.16183677,BOP00_1A,,0,,Pacific/Auckland,,,0,
20001179,1179,,Fraser Street - MacMillan Street,"37 Fraser Street, Tauranga South, Tauranga",-37.702078996,176.163792349,BOP00_1A,,0,,Pacific/Auckland,,,0,
20001186,1186,,Grange Road - Opposite Hillcrest Road,"200 Grange Road, Otumoetai, Tauranga",-37.678912796,176.142145249,BOP00_1A,,0,,Pacific/Auckland,,,0,
20001187,1187,,Grange Road - Otumoetai Rd,"262 Grange Road, Otumoetai, Tauranga",-37.680828403,176.139089563,BOP00_1A,,0,,Pacific/Auckland,,,0,
20001188,1188,,Grange Road - Stratford Place,"126 Grange Road, Otumoetai, Tauranga",-37.6767797,176.146946582,BOP00_1A,,0,,Pacific/Auckland,,,0,
20001189,1189,,Grange Road - Coach Drive,"141 Grange Road, Otumoetai, Tauranga",-37.678039964,176.145450844,BOP00_1A,,0,,Pacific/Auckland,,,0,
20001190,1190,,Grange Road - Parkvale Road,"261 Grange Road, Otumoetai, Tauranga",-37.680868868,176.137886397,BOP00_1A,,0,,Pacific/Auckland,,,0,
20001191,1191,,Grange Road - Hillcrest Road,"185 Grange Road, Otumoetai, Tauranga",-37.678800442,176.14179356,BOP00_1A,,0,,Pacific/Auckland,,,0,
20001192,1192,,Grange Road - Coach Drive,"141 Grange Road, Otumoetai, Tauranga",-37.678005279,176.14530185,BOP00_1A,,0,,Pacific/Auckland,,,0,
20001193,1193,,Gravatt Road - Crisp Drive,"255 Gravatt Road, Papamoa Beach, Papamoa",-37.696020012,176.263354814,BOP00_1A,,0,,Pacific/Auckland,,,0,
20001194,1194,,Gravatt Road - Opposite Crisp Drive,"268 Gravatt Road, Papamoa Beach, Papamoa",-37.696232273,176.2634575,BOP00_1A,,0,,Pacific/Auckland,,,0,
20001195,1195,,Gravatt Road - Arabian Drive,"293 Gravatt Road, Papamoa Beach, Papamoa",-37.695348132,176.261743748,BOP00_1A,,0,,Pacific/Auckland,,,0,
20001196,1196,,Gravatt Road - Hartford Avenue,"217A Gravatt Road, Papamoa Beach, Papamoa",-37.697304092,176.265797278,BOP00_1A,,0,,Pacific/Auckland,,,0,
20001197,1197,,Gravatt Road - Palm Beach Boulevard,"133 Gravatt Road, Papamoa Beach, Papamoa",-37.699142041,176.270651764,BOP00_1A,,0,,Pacific/Auckland,,,0,
20001198,1198,,Gravatt Road - Cayman Key,"85 Gravatt Road, Papamoa Beach, Papamoa",-37.699171083,176.27442729,BOP00_1A,,0,,Pacific/Auckland,,,0,
20001199,1199,,Clarke Street - Opposite Matthew Street,"37 Clarke Street, Gate Pa, Tauranga",-37.708544174,176.14515486,BOP00_1A,,0,,Pacific/Auckland,,,0,
20001201,1201,,Gravatt Road - Beachwater Drive,"53 Gravatt Road, Papamoa Beach, Papamoa",-37.700461854,176.278292478,BOP00_1A,,0,,Pacific/Auckland,,,0,
20001202,1202,,Gravatt Road - Montego Drive,"56 Gravatt Road, Papamoa Beach, Papamoa",-37.700344518,176.277309043,BOP00_1A,,0,,Pacific/Auckland,,,0,
20001203,1203,,Gravatt Road - Opposite Montego Drive,"104 Gravatt Road, Papamoa Beach, Papamoa",-37.699138103,176.273129827,BOP00_1A,,0,,Pacific/Auckland,,,0,
20001204,1204,,Gravatt Road - Bahamas Key,"164 Gravatt Road, Papamoa Beach, Papamoa",-37.698859212,176.269105902,BOP00_1A,,0,,Pacific/Auckland,,,0,
20001205,1205,,Gravatt Road - Novelle Grove,"216A Gravatt Road, Papamoa Beach, Papamoa",-37.697482594,176.265914797,BOP00_1A,,0,,Pacific/Auckland,,,0,
20001206,1206,,Gravatt Road - Evans Road,"306 Gravatt Road, Papamoa Beach, Papamoa",-37.695301682,176.260165511,BOP00_1A,,0,,Pacific/Auckland,,,0,
20001208,1208,,Grenada Street - Lotus Avenue,"187 Grenada Street, Mount Maunganui",-37.68087943,176.23898958,BOP00_1A,,0,,Pacific/Auckland,,,0,
20001209,1209,,Grenada Street - Ocean Shores Village,"80 Grenada Street, Mount Maunganui",-37.678475,176.235245482,BOP00_1A,,0,,Pacific/Auckland,,,0,
20001210,1210,,Grenada Street - Seaspray Drive,"49 Grenada Street, Mount Maunganui",-37.676854516,176.232665307,BOP00_1A,,0,,Pacific/Auckland,,,0,
20001211,1211,,Grenada Street - Grevillea Place,"180 Grenada Street, Mount Maunganui",-37.680425423,176.237741687,BOP00_1A,,0,,Pacific/Auckland,,,0,
20001212,1212,,Grenada Street - Monowai Street,"50 Grenada Street, Mount Maunganui",-37.6770418370976,176.232653765038,BOP00_1A,,0,,Pacific/Auckland,,,0,
20001213,1213,,Grenada Street - Zambuk Way,"14 Grenada Street, Mount Maunganui",-37.675123969292,176.229190314683,BOP00_1A,,0,,Pacific/Auckland,,,0,
20001214,1214,,Grey Street - Elizabeth Street,"107 Grey Street, Tauranga",-37.6866417679999,176.168092244489,BOP00_1A,,0,,Pacific/Auckland,,,0,
20001216,1216,,Ngatai Road - BP Service Station,"269 Ngatai Road, Otumoetai, Tauranga",-37.665559991,176.14192129,BOP00_1A,,0,,Pacific/Auckland,,,0,
20001217,1217,,Hewletts Road - Jean Batten Drive,"109 Hewletts Road, Mount Maunganui",-37.665790688,176.196131651,BOP00_1A,,0,,Pacific/Auckland,,,0,
20001218,1218,,Hewletts Road,"149 Hewletts Road, Mount Maunganui",-37.665743098,176.188836304,BOP00_1A,,0,,Pacific/Auckland,,,0,
20001221,1221,,Hewletts Road - Aerodrome Road - West,"59 Hewletts Road, Mount Maunganui",-37.66579901,176.201970472,BOP00_1A,,0,,Pacific/Auckland,,,0,
20001222,1222,,Hewletts Road - Waimarie Street,"4 Kereiti Street, Mount Maunganui",-37.66550692630959,176.18939863764484,BOP00_1A,,0,,Pacific/Auckland,,,0,
20001223,1223,,Hewletts Road - Hocking Street,"118 Hewletts Road, Mount Maunganui",-37.665534747,176.195357636,BOP00_1A,,0,,Pacific/Auckland,,,0,
20001224,1224,,Hewletts Road - Aerodrome Road - East,"64 Hewletts Road, Mount Maunganui",-37.665544719,176.201381501,BOP00_1A,,0,,Pacific/Auckland,,,0,
20001225,1225,,Hynds Road - Kent Street,"106 Hynds Road, Gate Pa, Tauranga",-37.720503996,176.133763093,BOP00_1A,,0,,Pacific/Auckland,,,0,
20001226,1226,,Hynds Road - Parkview Rise,"70 Hynds Road, Gate Pa, Tauranga",-37.722723263,176.132355132,BOP00_1A,,0,,Pacific/Auckland,,,0,
20001227,1227,,Hynds Road - Chadwick Road - South,"40B Hynds Road, Gate Pa, Tauranga",-37.724542696,176.131171355,BOP00_1A,,0,,Pacific/Auckland,,,0,
20001228,1228,,Hynds Road - Chadwick Road - North,"37 Hynds Road, Gate Pa, Tauranga",-37.724623144,176.130946371,BOP00_1A,,0,,Pacific/Auckland,,,0,
20001229,1229,,Hynds Road - Sherwin Street,"65 Hynds Road, Gate Pa, Tauranga",-37.722865357,176.132098395,BOP00_1A,,0,,Pacific/Auckland,,,0,
20001230,1230,,Hynds Road - Tuthill Street,"103 Hynds Road, Gate Pa, Tauranga",-37.720332347,176.13365951,BOP00_1A,,0,,Pacific/Auckland,,,0,
20001231,1231,,Lakes Boulevard - Bathurst Crescent,"1 Bathurst Crescent, Pyes Pa, Tauranga",-37.7470958,176.109583382,BOP00_1A,,0,,Pacific/Auckland,,,0,
20001232,1232,,James Cook Drive - Achilles Crescent,"79 James Cook Drive, Welcome Bay, Tauranga",-37.726775868,176.185323902,BOP00_1A,,0,,Pacific/Auckland,,,0,
20001233,1233,,Ohauiti Road - Shops,"162 Ohauiti Road, Hairini, Tauranga",-37.734583821,176.163293975,BOP00_1A,,0,,Pacific/Auckland,,,0,
20001245,1245,,Carmichael Road - Mayfield Lane,"69 Mayfield Lane, Bethlehem, Tauranga",-37.690363554,176.121268041,BOP00_1A,,0,,Pacific/Auckland,,,0,
20001246,1246,,Kings Avenue,"84 Kings Avenue, Matua, Tauranga",-37.669308547,176.117583776,BOP00_1A,,0,,Pacific/Auckland,,,0,
20001247,1247,,Levers Road - Bay Street,"285 Levers Road, Matua, Tauranga",-37.67140902,176.120293004,BOP00_1A,,0,,Pacific/Auckland,,,0,
20001248,1248,,Levers Road - Ranui Street,"2 Ranui Street, Matua, Tauranga",-37.664718827,176.135197161,BOP00_1A,,0,,Pacific/Auckland,,,0,
20001249,1249,,Levers Road - Woods Avenue,"115 Levers Road, Matua, Tauranga",-37.665312594,176.131933983,BOP00_1A,,0,,Pacific/Auckland,,,0,
20001250,1250,,Levers Road - Tilby Drive,"159 Levers Road, Matua, Tauranga",-37.665887768,176.129228185,BOP00_1A,,0,,Pacific/Auckland,,,0,
20001251,1251,,Levers Road - Kings Avenue,"357 Levers Road, Matua, Tauranga",-37.670375091,176.117178073,BOP00_1A,,0,,Pacific/Auckland,,,0,
20001252,1252,,Levers Road Reserve,"30 Levers Road, Matua, Tauranga",-37.664221395,176.137937289,BOP00_1A,,0,,Pacific/Auckland,,,0,
20001253,1253,,Levers Road - Smiths Road,"241 Levers Road, Matua, Tauranga",-37.669805537,176.122388265,BOP00_1A,,0,,Pacific/Auckland,,,0,
20001254,1254,,Levers Road - Matua Road,"199 Levers Road, Matua, Tauranga",-37.667857382,176.125803478,BOP00_1A,,0,,Pacific/Auckland,,,0,
20001255,1255,,Levers Road,"20A Levers Road, Matua, Tauranga",-37.664266512,176.138280854,BOP00_1A,,0,,Pacific/Auckland,,,0,
20001256,1256,,Carmichael Road - Windover Rise,"224 Carmichael Road, Bethlehem, Tauranga",-37.689885369,176.121250303,BOP00_1A,,0,,Pacific/Auckland,,,0,
20001257,1257,,Carmichael Road - Westmorland Rise,"172 Carmichael Road, Bethlehem, Tauranga",-37.68781914,176.118600876,BOP00_1A,,0,,Pacific/Auckland,,,0,
20001258,1258,,Gordon Carmichael Reserve,"174 Carmichael Road, Bethlehem, Tauranga",-37.687693556,176.118667709,BOP00_1A,,0,,Pacific/Auckland,,,0,
20001259,1259,,Carmichael Road - Meadowbank Rise,"144 Carmichael Road, Bethlehem, Tauranga",-37.685990429,176.114375589,BOP00_1A,,0,,Pacific/Auckland,,,0,
20001260,1260,,Carmichael Road - St Michaels Avenue,"145 Carmichael Road, Bethlehem, Tauranga",-37.685897826,176.114592622,BOP00_1A,,0,,Pacific/Auckland,,,0,
20001261,1261,,Carmichael Road - Opposite Bethlehem Country Club,"1 Charles Lever Drive, Bethlehem, Tauranga",-37.687282805,176.111206512,BOP00_1A,,0,,Pacific/Auckland,,,0,
20001263,1263,,Links Avenue - Ascot Road - West,"49 Links Avenue, Mount Maunganui",-37.667670891,176.212827136,BOP00_1A,,0,,Pacific/Auckland,,,0,
20001264,1264,,Links Avenue - Ascot Road,"91 Links Avenue, Mount Maunganui",-37.6700070162934,176.21624739771,BOP00_1A,,0,,Pacific/Auckland,,,0,
20001265,1265,,Links Avenue - Solway Place,"127 Links Avenue, Mount Maunganui",-37.67139597,176.220058414,BOP00_1A,,0,,Pacific/Auckland,,,0,
20001266,1266,,Links Avenue Reserve,"1 Solway Place, Mount Maunganui",-37.671325161,176.219691196,BOP00_1A,,0,,Pacific/Auckland,,,0,
20001267,1267,,Links Avenue -  Opposite Ascot Road - West,"48A Links Avenue, Mount Maunganui",-37.66746281,176.212268329,BOP00_1A,,0,,Pacific/Auckland,,,0,
20001268,1268,,Links Avenue - Golf Road,"4 Links Avenue, Mount Maunganui",-37.664505592,176.209440549,BOP00_1A,,0,,Pacific/Auckland,,,0,
20001269,1269,,Mansells Road - Emmett Street,"22 Mansels Road, Greerton, Tauranga",-37.729155004,176.136415868,BOP00_1A,,0,,Pacific/Auckland,,,0,
20001270,1270,,Mansels Road - Pooles Road,"4 Mansels Road, Greerton, Tauranga",-37.730275707,176.135357221,BOP00_1A,,0,,Pacific/Auckland,,,0,
20001271,1271,,Manuwai Drive,"46 Manuwai Drive, Matua, Tauranga",-37.666839965,176.118169574,BOP00_1A,,0,,Pacific/Auckland,,,0,
20001272,1272,,Carmichael Road - Bethlehem Country Club,"14/112 Carmichael Road, Bethlehem, Tauranga",-37.687378625,176.111357024,BOP00_1A,,0,,Pacific/Auckland,,,0,
20001273,1273,,Maranui Street - Sandhurst Drive,"2 Sandhurst Drive, Papamoa Beach, Papamoa",-37.681528166496,176.2494435484,BOP00_1A,,0,,Pacific/Auckland,,,0,
20001274,1274,,Bethlehem Road - Westmoreland Rise,"1 Westmorland Rise, Bethlehem, Tauranga",-37.691486848,176.109610172,BOP00_1A,,0,,Pacific/Auckland,,,0,
20001275,1275,,Bethlehem Road - Opposite Westmoreland Rise,"49 Bethlehem Road, Bethlehem, Tauranga",-37.691913893,176.109604767,BOP00_1A,,0,,Pacific/Auckland,,,0,
20001276,1276,,Matua Road - Eaton Crescent,"44 Matua Road, Matua, Tauranga",-37.665738697,176.122487834,BOP00_1A,,0,,Pacific/Auckland,,,0,
20001277,1277,,Matua Road - Eaton Crescent Reserve,"74 Matua Road, Matua, Tauranga",-37.664931599,176.120405893,BOP00_1A,,0,,Pacific/Auckland,,,0,
20001278,1278,,Maunganui Road - Commons Avenue,"1/17 Commons Avenue, Mount Maunganui",-37.633912023,176.179899033,BOP00_1A,,0,,Pacific/Auckland,,,0,
20001279,1279,,Maunganui Road - Terrace Avenue,"413 Maunganui Road, Mount Maunganui",-37.647388033551515,176.1908967024575,BOP00_1A,,0,,Pacific/Auckland,,,0,
20001280,1280,,Maunganui Road - Shopping Centre,"123 Maunganui Road, Mount Maunganui",-37.637161735,176.183072914,BOP00_1A,,0,,Pacific/Auckland,,,0,
20001281,1281,,Bethlehem Medical Centre,"16 Bethlehem Road, Bethlehem, Tauranga",-37.693857034,176.11090467,BOP00_1A,,0,,Pacific/Auckland,,,0,
20001282,1282,,Maunganui Road - Clyde Street,"480 Maunganui Road, Mount Maunganui",-37.652526446,176.196368458,BOP00_1A,,0,,Pacific/Auckland,,,0,
20001283,1283,,Maunganui Road - Grove Avenue,"347B Maunganui Road, Mount Maunganui",-37.643388711,176.18752875,BOP00_1A,,0,,Pacific/Auckland,,,0,
20001284,1284,,Maunganui Road - Hinau Street,"439 Maunganui Road, Mount Maunganui",-37.648950582,176.192038078,BOP00_1A,,0,,Pacific/Auckland,,,0,
20001285,1285,,Maunganui Road - Rata Street,"297 Maunganui Road, Mount Maunganui",-37.642280552,176.185861885,BOP00_1A,,0,,Pacific/Auckland,,,0,
20001286,1286,,Maunganui Road - Library,"384 Maunganui Road, Mount Maunganui",-37.645190911,176.189613064,BOP00_1A,,0,,Pacific/Auckland,,,0,
20001287,1287,,Maunganui Road - Opposite Clyde Street,"480 Maunganui Road, Mount Maunganui",-37.652895043435066,176.19663364116838,BOP00_1A,,0,,Pacific/Auckland,,,0,
20001288,1288,,Maunganui Road - Hinau Street,"432 Maunganui Road, Mount Maunganui",-37.648569499,176.191517183,BOP00_1A,,0,,Pacific/Auckland,,,0,
20001289,1289,,Maunganui Road - Tawa Street,"348 Maunganui Road, Mount Maunganui",-37.643719139,176.187645991,BOP00_1A,,0,,Pacific/Auckland,,,0,
20001290,1290,,Maunganui Road - Banks Avenue,"217 Maunganui Road, Mount Maunganui",-37.640048232,176.184371449,BOP00_1A,,0,,Pacific/Auckland,,,0,
20001291,1291,,Maungatapu Shopping Centre,"285 Maungatapu Road, Maungatapu, Tauranga",-37.716472709,176.178839844,BOP00_1A,,0,,Pacific/Auckland,,,0,
20001292,1292,,Maungatapu Road - Opposite Sunset Crescent,"117 Maungatapu Road, Maungatapu, Tauranga",-37.722818148,176.172776638,BOP00_1A,,0,,Pacific/Auckland,,,0,
20001293,1293,,Maungatapu Road - Taipari Street,"298 Maungatapu Road, Maungatapu, Tauranga",-37.715393681,176.179845946,BOP00_1A,,0,,Pacific/Auckland,,,0,
20001294,1294,,Maungatapu Road - Mersea Place,"246 Maungatapu Road, Maungatapu, Tauranga",-37.71723705,176.177565663,BOP00_1A,,0,,Pacific/Auckland,,,0,
20001295,1295,,Maungatapu Road - Sunset Crescent,"136 Maungatapu Road, Maungatapu, Tauranga",-37.723116933,176.172088936,BOP00_1A,,0,,Pacific/Auckland,,,0,
20001296,1296,,Maungatapu Road - Ririnui Place,"178 Maungatapu Road, Maungatapu, Tauranga",-37.721261556,176.174525669,BOP00_1A,,0,,Pacific/Auckland,,,0,
20001297,1297,,Maungatapu Road - Anchorage Grove,"2 Anchorage Grove, Maungatapu, Tauranga",-37.719583182,176.175601391,BOP00_1A,,0,,Pacific/Auckland,,,0,
20001298,1298,,Maungatapu Road - Fronting 346b,"346B Maungatapu Road, Maungatapu, Tauranga",-37.71379719,176.181620695,BOP00_1A,,0,,Pacific/Auckland,,,0,
20001299,1299,,Maungatapu Rd - Before SH29,"398 Maungatapu Road, Maungatapu, Tauranga",-37.712447752,176.183783398,BOP00_1A,,0,,Pacific/Auckland,,,0,
20001300,1300,,Brookfield - Millers Road (Stand D),"7 Millers Road, Brookfield, Tauranga",-37.690401267,176.134117093,BOP00_1A,,0,,Pacific/Auckland,,,0,
20001301,1301,,Moffat Road - Pembroke Drive,"194 Moffat Road, Bethlehem, Tauranga",-37.696954172,176.11245608,BOP00_1A,,0,,Pacific/Auckland,,,0,
20001305,1305,,Moffat Road - St Regis Way,"173 Moffat Road, Bethlehem, Tauranga",-37.698793521,176.112645777,BOP00_1A,,0,,Pacific/Auckland,,,0,
20001306,1306,,Ngatai Road - Opposite Short Street,"189 Ngatai Road, Otumoetai, Tauranga",-37.666491307,176.14658693,BOP00_1A,,0,,Pacific/Auckland,,,0,
20001307,1307,,Bethlehem Road - Cherry Way,"11 Bethlehem Road, Bethlehem, Tauranga",-37.69446396,176.111016113,BOP00_1A,,0,,Pacific/Auckland,,,0,
20001308,1308,,Ngatai Road - Emily Place,"1 Emily Place, Bellevue, Tauranga",-37.669988099,176.134065608,BOP00_1A,,0,,Pacific/Auckland,,,0,
20001309,1309,,Ngatai Road - Matua Saltmarsh,"423 Ngatai Road, Bellevue, Tauranga",-37.673904187,176.130381149,BOP00_1A,,0,,Pacific/Auckland,,,0,
20001310,1310,,Ngatai Road - Opposite Carlton Street Reserve,"407 Ngatai Road, Bellevue, Tauranga",-37.672538193,176.132730556,BOP00_1A,,0,,Pacific/Auckland,,,0,
20001311,1311,,Ngatai Road - Opposite Emily Place,"363B Ngatai Road, Bellevue, Tauranga",-37.669753811,176.13398675,BOP00_1A,,0,,Pacific/Auckland,,,0,
20001312,1312,,Ngatai Road - Crescent Road,"142 Ngatai Road, Otumoetai, Tauranga",-37.667028792,176.150568259,BOP00_1A,,0,,Pacific/Auckland,,,0,
20001313,1313,,Ngatai Road - Carlton Street Reserve,"408A Ngatai Road, Bellevue, Tauranga",-37.672624992,176.132824189,BOP00_1A,,0,,Pacific/Auckland,,,0,
20001314,1314,,Ngatai Road - Otumoetai Health Centre,"266 Ngatai Road, Otumoetai, Tauranga",-37.666150816,176.138765415,BOP00_1A,,0,,Pacific/Auckland,,,0,
20001315,1315,,Ngatai Road -  Opposite Crescent Road,"141 Ngatai Road, Otumoetai, Tauranga",-37.666913676,176.150685369,BOP00_1A,,0,,Pacific/Auckland,,,0,
20001316,1316,,Ngatai Road - Western Road,"324 Ngatai Road, Bellevue, Tauranga",-37.667823017,176.135437415,BOP00_1A,,0,,Pacific/Auckland,,,0,
20001317,1317,,Ngatai Road - Bureta Park,"109 Ngatai Road, Otumoetai, Tauranga",-37.667666673,176.153118619,BOP00_1A,,0,,Pacific/Auckland,,,0,
20001319,1319,,Ngatai Rd - Otumoetai Health Centre,"266 Ngatai Road, Otumoetai, Tauranga",-37.666131845,176.139146106,BOP00_1A,,0,,Pacific/Auckland,,,0,
20001329,1329,,Gravatt Road - Fashion Island,"42 Gravatt Road, Papamoa Beach, Papamoa",-37.700839808,176.279415849,BOP00_1A,,0,,Pacific/Auckland,,,0,
20001330,1330,,Windsor Road - Opposite Bellevue Park,"74 Windsor Road, Bellevue, Tauranga",-37.6817303,176.128436715,BOP00_1A,,0,,Pacific/Auckland,,,0,
20001331,1331,,Rowesdale Drive - Albero Drive,"105 Rowesdale Drive, Ohauiti",-37.749967304244244,176.1564985733403,BOP00_1A,,0,,Pacific/Auckland,,,0,
20001332,1332,,Rowesdale Drive - Revell Drive,"19 Rowesdale Drive, Ohauiti",-37.749769738,176.163613241,BOP00_1A,,0,,Pacific/Auckland,,,0,
20001333,1333,,Ohauiti Road - Ruahine Street,"208 Ohauiti Road, Ohauiti",-37.737282967,176.161524964,BOP00_1A,,0,,Pacific/Auckland,,,0,
20001334,1334,,Ohauiti Road - Fronting No. 242,"240 Ohauiti Road, Ohauiti",-37.739701555,176.160685671,BOP00_1A,,0,,Pacific/Auckland,,,0,
20001335,1335,,Ohauiti Road - Kaimai View Drive,"264 Ohauiti Road, Ohauiti",-37.742073778,176.161046587,BOP00_1A,,0,,Pacific/Auckland,,,0,
20001336,1336,,Ohauiti Road - Maggie Place,"1 Maggie Place, Ohauiti",-37.744408689,176.162131954,BOP00_1A,,0,,Pacific/Auckland,,,0,
20001337,1337,,Ohauiti Road - Tuscany Place,"468 Ohauiti Road, Ohauiti",-37.7480168,176.164575703,BOP00_1A,,0,,Pacific/Auckland,,,0,
20001338,1338,,Hollister Lane - Woodleigh Place,"172 Hollister Lane, Ohauiti",-37.746923355,176.15322714,BOP00_1A,,0,,Pacific/Auckland,,,0,
20001341,1341,,Hollister Lane - Carmel Country Estate,"22 Hollister Lane, Ohauiti",-37.73861313499715,176.1542984750119,BOP00_1A,,0,,Pacific/Auckland,,,0,
20001342,1342,,Oropi Road - Cheyne Road,"2 Merlot Drive, Pyes Pa, Tauranga",-37.740190119,176.140992534,BOP00_1A,,0,,Pacific/Auckland,,,0,
20001346,1346,,Oropi Road - Greerton Park,"90 Oropi Road, Greerton, Tauranga",-37.73446436,176.143271795,BOP00_1A,,0,,Pacific/Auckland,,,0,
20001347,1347,,Oropi Road - Maleme Street,"119 Oropi Road, Greerton, Tauranga",-37.735818117,176.142690626,BOP00_1A,,0,,Pacific/Auckland,,,0,
20001348,1348,,Osprey Drive - Opposite Selwyn Park,"15 Osprey Drive, Welcome Bay, Tauranga",-37.731066785,176.184590195,BOP00_1A,,0,,Pacific/Auckland,,,0,
20001349,1349,,Osprey Drive,"41 Osprey Drive, Welcome Bay, Tauranga",-37.732604537,176.186280996,BOP00_1A,,0,,Pacific/Auckland,,,0,
20001350,1350,,Osprey Drive - Opposite Pelorus Street,"73 Osprey Drive, Welcome Bay, Tauranga",-37.734626203,176.186306425,BOP00_1A,,0,,Pacific/Auckland,,,0,
20001351,1351,,Osprey Drive - Bateleur Close,"2 Bateleur Close, Welcome Bay, Tauranga",-37.733926347452595,176.1892220929774,BOP00_1A,,0,,Pacific/Auckland,,,0,
20001352,1352,,Otumoetai Road - Bennett Street,"434 Otumoetai Road, Otumoetai, Tauranga",-37.671766621,176.138614634,BOP00_1A,,0,,Pacific/Auckland,,,0,
20001353,1353,,Otumoetai Road - Keilor Road,"389 Otumoetai Road, Otumoetai, Tauranga",-37.673690387,176.138190578,BOP00_1A,,0,,Pacific/Auckland,,,0,
20001354,1354,,Otumoetai Road - Cherrywood Shops,"475 Otumoetai Road, Otumoetai, Tauranga",-37.668638929,176.139410572,BOP00_1A,,0,,Pacific/Auckland,,,0,
20001355,1355,,Otumoetai Road - Glenn Terrace,"2 Glenn Terrace, Otumoetai, Tauranga",-37.677168784,176.136380057,BOP00_1A,,0,,Pacific/Auckland,,,0,
20001356,1356,,Otumoetai Road - Grange Road,"281 Otumoetai Road, Otumoetai, Tauranga",-37.6803687793587,176.13633235034,BOP00_1A,,0,,Pacific/Auckland,,,0,
20001357,1357,,Otumoetai Road - Opposite Otumoetai Primary School,"221A Otumoetai Road, Otumoetai, Tauranga",-37.682780949,176.136040843,BOP00_1A,,0,,Pacific/Auckland,,,0,
20001358,1358,,Otumoetai Road - Opposite Brookfield Shops,"127 Otumoetai Road, Brookfield, Tauranga",-37.689214203,176.135885818,BOP00_1A,,0,,Pacific/Auckland,,,0,
20001359,1359,,Otumoetai Road - Linley Terrace,"55A Otumoetai Road, Judea, Tauranga",-37.692726814,176.135405615,BOP00_1A,,0,,Pacific/Auckland,,,0,
20001360,1360,,Otumoetai Road - Longwood Lane,"433 Otumoetai Road, Otumoetai, Tauranga",-37.672090772,176.138679252,BOP00_1A,,0,,Pacific/Auckland,,,0,
20001362,1362,,Otumoetai Road - Opposite Keilor Road,"382 Otumoetai Road, Otumoetai, Tauranga",-37.673852283,176.137927505,BOP00_1A,,0,,Pacific/Auckland,,,0,
20001363,1363,,Otumoetai Road - Cherrywood Shops,"470 Otumoetai Road, Otumoetai, Tauranga",-37.668768189,176.139260623,BOP00_1A,,0,,Pacific/Auckland,,,0,
20001364,1364,,Otumoetai Road - Lydbrook Place,"266 Otumoetai Road, Otumoetai, Tauranga",-37.680428257,176.136204176,BOP00_1A,,0,,Pacific/Auckland,,,0,
20001365,1365,,Otumoetai Primary School,"236 Otumoetai Road, Otumoetai, Tauranga",-37.68226236,176.136018604,BOP00_1A,,0,,Pacific/Auckland,,,0,
20001366,1366,,Otumoetai Road - Brookfield Shops,"146 Otumoetai Road, Brookfield, Tauranga",-37.688949534,176.135635389,BOP00_1A,,0,,Pacific/Auckland,,,0,
20001367,1367,,Otumoetai Road - Lees Park,"76 Otumoetai Road, Judea, Tauranga",-37.691880184,176.13550319,BOP00_1A,,0,,Pacific/Auckland,,,0,
20001368,1368,,Otumoetai Road - David Street,"18 Otumoetai Road, Judea, Tauranga",-37.695362599,176.134546683,BOP00_1A,,0,,Pacific/Auckland,,,0,
20001369,1369,,Otumoetai Road - Opposite David Street,"3 Otumoetai Road, Judea, Tauranga",-37.695454213,176.134700057,BOP00_1A,,0,,Pacific/Auckland,,,0,
20001371,1371,,Papamoa Beach Road - Opposite Kirkpatrick Place,"966 Papamoa Beach Road, Papamoa Beach, Papamoa",-37.710751097,176.32290515,BOP00_1A,,0,,Pacific/Auckland,,,0,
20001372,1372,,Papamoa Beach Road - Opposite Palm Springs Boulevard,"1049 Papamoa Beach Road, Papamoa Beach, Papamoa",-37.713147768,176.330572594,BOP00_1A,,0,,Pacific/Auckland,,,0,
20001373,1373,,Papamoa Beach Road - Motiti Road,"1069D Papamoa Beach Road, Papamoa Beach, Papamoa",-37.713811114,176.332819859,BOP00_1A,,0,,Pacific/Auckland,,,0,
20001374,1374,,Papamoa Beach Road - Opposite Calypso Drive,"1133 Papamoa Beach Road, Papamoa Beach, Papamoa",-37.7151547010075,176.337141663391,BOP00_1A,,0,,Pacific/Auckland,,,0,
20001375,1375,,Papamoa Beach Road - Motiti Reserve,"1159 Papamoa Beach Road, Papamoa Beach, Papamoa",-37.7162333468988,176.339807290558,BOP00_1A,,0,,Pacific/Auckland,,,0,
20001376,1376,,Papamoa Beach Road - Opposite Parton Road,"914 Papamoa Beach Road, Papamoa Beach, Papamoa",-37.709201876,176.318718738,BOP00_1A,,0,,Pacific/Auckland,,,0,
20001377,1377,,Papamoa Beach Road - Parton Road,"918A Papamoa Beach Road, Papamoa Beach, Papamoa",-37.709423995,176.318981262,BOP00_1A,,0,,Pacific/Auckland,,,0,
20001378,1378,,Bellevue Park,"73A Windsor Road, Bellevue, Tauranga",-37.68157939,176.128584357,BOP00_1A,,0,,Pacific/Auckland,,,0,
20001379,1379,,Windermere Drive - Poike Road - Out,"11 Windermere Drive, Poike, Tauranga",-37.73632426,176.15023275,BOP00_1A,,0,,Pacific/Auckland,,,0,
20001380,1380,,Cheyne Road - Merlot Drive,"1 Merlot Drive, Pyes Pa, Tauranga",-37.740667545,176.13950756,BOP00_1A,,0,,Pacific/Auckland,,,0,
20001381,1381,,Papamoa Beach Road - Palm Springs Boulevard,"1050 Papamoa Beach Road, Papamoa Beach, Papamoa",-37.713226298934,176.33044005373,BOP00_1A,,0,,Pacific/Auckland,,,0,
20001382,1382,,Papamoa Beach Road,"942A Papamoa Beach Road, Papamoa Beach, Papamoa",-37.710182189,176.320900581,BOP00_1A,,0,,Pacific/Auckland,,,0,
20001383,1383,,Papamoa Beach Road - Opposite Motiti Reserve,"1170A Papamoa Beach Road, Papamoa Beach, Papamoa",-37.716090934,176.339267889,BOP00_1A,,0,,Pacific/Auckland,,,0,
20001384,1384,,Papamoa Beach Road - Golden Sands Drive,"1206 Papamoa Beach Road, Papamoa Beach, Papamoa",-37.71781354,176.343612631,BOP00_1A,,0,,Pacific/Auckland,,,0,
20001385,1385,,Papamoa Beach Road - Thompson Drive,"1276 Papamoa Beach Road, Papamoa Beach, Papamoa",-37.72010696,176.349054439,BOP00_1A,,0,,Pacific/Auckland,,,0,
20001387,1387,,Papamoa Beach Road - Short Place,"1244 Papamoa Beach Road, Papamoa Beach, Papamoa",-37.719303692,176.347187525,BOP00_1A,,0,,Pacific/Auckland,,,0,
20001388,1388,,Papamoa Beach Road - Karewa Parade,"1196 Papamoa Beach Road, Papamoa Beach, Papamoa",-37.717242581,176.342173081,BOP00_1A,,0,,Pacific/Auckland,,,0,
20001389,1389,,Papamoa Beach Road - Calypso Drive,"1142A Papamoa Beach Road, Papamoa Beach, Papamoa",-37.71476642,176.335749179,BOP00_1A,,0,,Pacific/Auckland,,,0,
20001390,1390,,Papamoa Beach Road - Opposite Motiti Road,"1110 Papamoa Beach Road, Papamoa Beach, Papamoa",-37.713972775,176.332952779,BOP00_1A,,0,,Pacific/Auckland,,,0,
20001391,1391,,Papamoa Beach Road - Opposite No. 988,"988 Papamoa Beach Road, Papamoa Beach, Papamoa",-37.711423335,176.324927301,BOP00_1A,,0,,Pacific/Auckland,,,0,
20001392,1392,,Papamoa Beach Road - Kirkpatrick Place,"970 Papamoa Beach Road, Papamoa Beach, Papamoa",-37.711020212,176.323394883,BOP00_1A,,0,,Pacific/Auckland,,,0,
20001393,1393,,Parton Road - Simpson Reserve,"5 Parton Road, Papamoa Beach, Papamoa",-37.709353549,176.316497578,BOP00_1A,,0,,Pacific/Auckland,,,0,
20001395,1395,,Poike Road - Changepoint Church,"131 Poike Road, Hairini, Tauranga",-37.73755975264578,176.15309165326022,BOP00_1A,,0,,Pacific/Auckland,,,0,
20001396,1396,,Poike Road - Sapphire Drive,"69 Poike Road, Hairini, Tauranga",-37.737373139,176.156777771,BOP00_1A,,0,,Pacific/Auckland,,,0,
20001397,1397,,Cheyne Road - Waterside Dr,"281 Cheyne Road, Pyes Pa, Tauranga",-37.742300763755,176.13745996462,BOP00_1A,,0,,Pacific/Auckland,,,0,
20001398,1398,,Poike Road - Corwen Avenue,"1 Corwen Avenue, Hairini, Tauranga",-37.738073432,176.153559579,BOP00_1A,,0,,Pacific/Auckland,,,0,
20001399,1399,,Windermere Drive - Lagoon Place,"111 Windermere Drive, Poike, Tauranga",-37.731298992,176.149987809,BOP00_1A,,0,,Pacific/Auckland,,,0,
20001400,1400,,Condor Drive - Bellbird Rise,"5 Condor Drive, Pyes Pa, Tauranga",-37.7438020486702,176.134330042482,BOP00_1A,,0,,Pacific/Auckland,,,0,
20001401,1401,,Pyes Pa Road - Opposite Stableford Drive,"47 Pyes Pa Road, Pyes Pa, Tauranga",-37.738868699,176.121859168,BOP00_1A,,0,,Pacific/Auckland,,,0,
20001402,1402,,Pyes Pa Road - Althorp Avenue,"78 Pyes Pa Road, Pyes Pa, Tauranga",-37.7417992210264,176.12216620023,BOP00_1A,,0,,Pacific/Auckland,,,0,
20001403,1403,,Pyes Pa Road - Ahuru Place,"123B Pyes Pa Road, Pyes Pa, Tauranga",-37.745588168,176.122604693,BOP00_1A,,0,,Pacific/Auckland,,,0,
20001404,1404,,Inverness Drive,"15 Inverness Drive, Pyes Pa, Tauranga",-37.747587717,176.123262441,BOP00_1A,,0,,Pacific/Auckland,,,0,
20001406,1406,,Pyes Pa Road - Freeburn Road,"8 Horsley Grove, Pyes Pa, Tauranga",-37.749705238,176.121571954,BOP00_1A,,0,,Pacific/Auckland,,,0,
20001407,1407,,Pyes Pa Road - Saville Place,"130 Pyes Pa Road, Pyes Pa, Tauranga",-37.746462534,176.122128689,BOP00_1A,,0,,Pacific/Auckland,,,0,
20001408,1408,,Pyes Pa Road - Kopu Drive,"76 Pyes Pa Road, Pyes Pa, Tauranga",-37.741727044,176.12192023,BOP00_1A,,0,,Pacific/Auckland,,,0,
20001409,1409,,Pyes Pa Road - Stableford Drive,"40 Pyes Pa Road, Pyes Pa, Tauranga",-37.738530744,176.121772238,BOP00_1A,,0,,Pacific/Auckland,,,0,
20001411,1411,,Queen Road - Princess Road - South,"33 Queen Road, Bellevue, Tauranga",-37.678419394,176.127581275,BOP00_1A,,0,,Pacific/Auckland,,,0,
20001412,1412,,Queen Road - Princess Road - North,"38 Queen Road, Bellevue, Tauranga",-37.678181,176.127466,BOP00_1A,,0,,Pacific/Auckland,,,0,
20001413,1413,,Queen Road - Charles Street,"70 Queen Road, Bellevue, Tauranga",-37.675840812,176.128284163,BOP00_1A,,0,,Pacific/Auckland,,,0,
20001414,1414,,Dive Crescent - Marsh Street,"80 Dive Crescent, Tauranga",-37.674911135,176.169329919,BOP00_1A,,0,,Pacific/Auckland,,,0,
20001420,1420,,Papamoa Beach Road - Sandhurst Drive,"11 Otira Close, Papamoa Beach, Papamoa",-37.681859513,176.2504692,BOP00_1A,,0,,Pacific/Auckland,,,0,
20001422,1422,,Windermere Drive - College Place,"1 College Place, Poike, Tauranga",-37.729128087,176.150982211,BOP00_1A,,0,,Pacific/Auckland,,,0,
20001424,1424,,Windermere Drive - Toi Ohomai,"90 Windermere Drive, Poike, Tauranga",-37.732819562,176.150427716,BOP00_1A,,0,,Pacific/Auckland,,,0,
20001425,1425,,Windermere Drive - Poike Road - In,"5B Windermere Drive, Poike, Tauranga",-37.736331886,176.150078679,BOP00_1A,,0,,Pacific/Auckland,,,0,
20001426,1426,,Mt Maunganui - Salisbury Avenue,"10 Salisbury Avenue, Mount Maunganui",-37.640080182,176.183322798,BOP00_1A,,0,,Pacific/Auckland,,,0,
20001427,1427,,Chapel Street,"60 Chapel Street, Tauranga",-37.674777961,176.16537683,BOP00_1A,,0,,Pacific/Auckland,,,0,
20001428,1428,,St Andrews Drive - Glenrowan Rise,"288 St Andrews Drive, Bethlehem, Tauranga",-37.711116882,176.116000908,BOP00_1A,,0,,Pacific/Auckland,,,0,
20001433,1433,,Taipari Street - Maungatapu Road,"309 Maungatapu Road, Maungatapu, Tauranga",-37.715460299,176.180381858,BOP00_1A,,0,,Pacific/Auckland,,,0,
20001434,1434,,Castlewold Drive - Wakefield Drive,"67 Castlewold Drive, Bethlehem, Tauranga",-37.707471585,176.117770875,BOP00_1A,,0,,Pacific/Auckland,,,0,
20001435,1435,,Tilby Drive - Waratah Street,"67 Tilby Drive, Matua, Tauranga",-37.66308553,176.124640223,BOP00_1A,,0,,Pacific/Auckland,,,0,
20001436,1436,,Tilby Drive - Clivedene Street,"31 Tilby Drive, Matua, Tauranga",-37.664709048,176.126383916,BOP00_1A,,0,,Pacific/Auckland,,,0,
20001437,1437,,Castlewold Drive- Siemonek Rise,"117 Castlewold Drive, Bethlehem, Tauranga",-37.705860198,176.118972291,BOP00_1A,,0,,Pacific/Auckland,,,0,
20001438,1438,,Tom Muir Drive - Grantham Close,"49 Tom Muir Drive, Gate Pa, Tauranga",-37.712693646,176.133921021,BOP00_1A,,0,,Pacific/Auckland,,,0,
20001439,1439,,Tom Muir Drive - Sunvale Place,"74 Tom Muir Drive, Gate Pa, Tauranga",-37.715253038,176.134835594,BOP00_1A,,0,,Pacific/Auckland,,,0,
20001440,1440,,Tom Muir Drive,"50 Tom Muir Drive, Gate Pa, Tauranga",-37.713065072,176.135556166,BOP00_1A,,0,,Pacific/Auckland,,,0,
20001441,1441,,Castlewold Drive,"189 Castlewold Drive, Bethlehem, Tauranga",-37.702113038,176.121756592,BOP00_1A,,0,,Pacific/Auckland,,,0,
20001442,1442,,Castlewold Drive - Shrewsbury Close,"251 Castlewold Drive, Bethlehem, Tauranga",-37.7002166,176.123697458,BOP00_1A,,0,,Pacific/Auckland,,,0,
20001443,1443,,Turret Road,"83 Turret Road, Tauranga South, Tauranga",-37.71449275,176.165209672,BOP00_1A,,0,,Pacific/Auckland,,,0,
20001444,1444,,Sterling Gate Drive - Amberley Crescent,"46 Sterling Gate Drive, Bethlehem, Tauranga",-37.701558035,176.125152506,BOP00_1A,,0,,Pacific/Auckland,,,0,
20001445,1445,,Tuthill Street - Dunrobbin Place,"9 Tuthill Street, Gate Pa, Tauranga",-37.719611188,176.133172713,BOP00_1A,,0,,Pacific/Auckland,,,0,
20001446,1446,,Tuthill Street - Opposite Dunrobbin Place,"12 Tuthill Street, Gate Pa, Tauranga",-37.719601119,176.132779317,BOP00_1A,,0,,Pacific/Auckland,,,0,
20001448,1448,,Vale Street,"24 Vale Street, Otumoetai, Tauranga",-37.669911518,176.154518785,BOP00_1A,,0,,Pacific/Auckland,,,0,
20001452,1452,,Valley Road - Tui Street,"178 Valley Road, Mount Maunganui",-37.657242477244,176.2076848652,BOP00_1A,,0,,Pacific/Auckland,,,0,
20001453,1453,,Dee Street,"134 Valley Road, Mount Maunganui",-37.654699111,176.203806927,BOP00_1A,,0,,Pacific/Auckland,,,0,
20001454,1454,,Sterling Gate Drive - Portchester Close,"22 Sterling Gate Drive, Bethlehem, Tauranga",-37.703078872,176.12494324,BOP00_1A,,0,,Pacific/Auckland,,,0,
20001455,1455,,Victory Street - Opposite Archilles Crescent,"43 Victory Street, Welcome Bay, Tauranga",-37.728860915818,176.18485294889,BOP00_1A,,0,,Pacific/Auckland,,,0,
20001456,1456,,Waihi Road - Judea Heights,"153 Waihi Road, Judea, Tauranga",-37.695412212923614,176.14302711698878,BOP00_1A,,0,,Pacific/Auckland,,,0,
20001457,1457,,Waihi Road - Churchill Road,"101 Waihi Road, Judea, Tauranga",-37.69624684,176.146673412,BOP00_1A,,0,,Pacific/Auckland,,,0,
20001458,1458,,Waihi Road - Robins Road,"75 Waihi Road, Judea, Tauranga",-37.696981899,176.148213016,BOP00_1A,,0,,Pacific/Auckland,,,0,
20001459,1459,,Waihi Road - Paine Street,"164 Waihi Road, Judea, Tauranga",-37.695271411,176.141803563,BOP00_1A,,0,,Pacific/Auckland,,,0,
20001460,1460,,Waitaha Reserve,"13 Waitaha Road, Welcome Bay, Tauranga",-37.725846706,176.190435005,BOP00_1A,,0,,Pacific/Auckland,,,0,
20001462,1462,,Waitaha Road - D'Urville Way,"159 Waitaha Road, Welcome Bay, Tauranga",-37.732833268,176.19096039,BOP00_1A,,0,,Pacific/Auckland,,,0,
20001463,1463,,Bellevue Road - Sutherland Road,"17 Bellevue Road, Brookfield, Tauranga",-37.693408145,176.138766441,BOP00_1A,,0,,Pacific/Auckland,,,0,
20001464,1464,,Bellevue Road - Opposite Sutherland Road,"22 Bellevue Road, Brookfield, Tauranga",-37.692912611,176.138359471,BOP00_1A,,0,,Pacific/Auckland,,,0,
20001465,1465,,Brookfield - Millers Road (Stand C),"11 Millers Road, Brookfield, Tauranga",-37.690272558,176.133745741,BOP00_1A,,0,,Pacific/Auckland,,,0,
20001466,1466,,Millers Road - Solomon Street,"23/100 Millers Road, Brookfield, Tauranga",-37.691196525,176.126514732,BOP00_1A,,0,,Pacific/Auckland,,,0,
20001467,1467,,Waratah Street - Shaw Place,"18 Waratah Street, Matua, Tauranga",-37.662461674,176.133892503,BOP00_1A,,0,,Pacific/Auckland,,,0,
20001468,1468,,Millers Road - Outside 91,"91 Millers Road, Brookfield, Tauranga",-37.691125,176.12714,BOP00_1A,,0,,Pacific/Auckland,,,0,
20001469,1469,,Cameron Road - Greenpark School,"1468 Cameron Road, Greerton, Tauranga",-37.7324978299656,176.125914634795,BOP00_1A,,0,,Pacific/Auckland,,,0,
20001470,1470,,Warrington Street - Matua Road,"36 Warrington Street, Matua, Tauranga",-37.666411233,176.124166959,BOP00_1A,,0,,Pacific/Auckland,,,0,
20001471,1471,,Warrington Street,"4 Warrington Street, Matua, Tauranga",-37.665674594,176.126719804,BOP00_1A,,0,,Pacific/Auckland,,,0,
20001472,1472,,Pyes Pa Road - Havenbrook Way,"12 Pyes Pa Road, Pyes Pa, Tauranga",-37.736241872,176.122728878,BOP00_1A,,0,,Pacific/Auckland,,,0,
20001473,1473,,Watling Street - Twenty-third Avenue - South,"18 Watling Street, Gate Pa, Tauranga",-37.712654541,176.139781383,BOP00_1A,,0,,Pacific/Auckland,,,0,
20001474,1474,,Watling Street - Gate Pa Domain,"64 Watling Street, Gate Pa, Tauranga",-37.714699622,176.137120832,BOP00_1A,,0,,Pacific/Auckland,,,0,
20001475,1475,,Watling Street - Opposite Gate Pa Domain,"89 Watling Street, Gate Pa, Tauranga",-37.714757639,176.136851782,BOP00_1A,,0,,Pacific/Auckland,,,0,
20001476,1476,,Watling Street - Twentythird Avenue,"25 Watling Street, Gate Pa, Tauranga",-37.712528878,176.139744954,BOP00_1A,,0,,Pacific/Auckland,,,0,
20001477,1477,,Weka Street,"5 Weka Street, Matua, Tauranga",-37.66756314,176.118386597,BOP00_1A,,0,,Pacific/Auckland,,,0,
20001478,1478,,Welcome Bay Road - Dairy,"167 Welcome Bay Road, Welcome Bay, Tauranga",-37.724835155,176.182192191,BOP00_1A,,0,,Pacific/Auckland,,,0,
20001479,1479,,Welcome Bay Shopping Centre,"279 Welcome Bay Road, Welcome Bay, Tauranga",-37.725102535,176.192971532,BOP00_1A,,0,,Pacific/Auckland,,,0,
20001481,1481,,Welcome Bay Road - Arawata Avenue,"365 Welcome Bay Road, Welcome Bay, Tauranga",-37.727521196,176.198985066,BOP00_1A,,0,,Pacific/Auckland,,,0,
20001483,1483,,Welcome Bay Hall,"244 Welcome Bay Road, Welcome Bay, Tauranga",-37.725235754,176.191395629,BOP00_1A,,0,,Pacific/Auckland,,,0,
20001484,1484,,Welcome Bay Road - Meadowviews Drive,"133 Welcome Bay Road, Welcome Bay, Tauranga",-37.725385657,176.18005168,BOP00_1A,,0,,Pacific/Auckland,,,0,
20001487,1487,,Welcome Bay Road - Vet Clinic,"68 Welcome Bay Road, Welcome Bay, Tauranga",-37.726847896,176.175693652,BOP00_1A,,0,,Pacific/Auckland,,,0,
20001488,1488,,Welcome Bay Road - Awanui Place,"47 Welcome Bay Road, Welcome Bay, Tauranga",-37.726887294259214,176.17515583000647,BOP00_1A,,0,,Pacific/Auckland,,,0,
20001489,1489,,Welcome Bay Road - Stand C,"23 Stonewall Way, Hairini, Tauranga",-37.72759058491859,176.1707562721807,BOP00_1A,,0,,Pacific/Auckland,,,0,
20001490,1490,,Welcome Bay Road - Opposite Meadowviews Drive,"111 Welcome Bay Road, Welcome Bay, Tauranga",-37.7256371114318,176.179000664404,BOP00_1A,,0,,Pacific/Auckland,,,0,
20001492,1492,,Ngatai Road - Opposite Western Road,"324 Ngatai Road, Bellevue, Tauranga",-37.667647459,176.135443816,BOP00_1A,,0,,Pacific/Auckland,,,0,
20001493,1493,,Goods Road - Rutherford Street,"11 Goods Road, Otumoetai, Tauranga",-37.674585254,176.155344455,BOP00_1A,,0,,Pacific/Auckland,,,0,
20001494,1494,,Goods Road - Opposite Rutherford Street,"16A Goods Road, Otumoetai, Tauranga",-37.674862153,176.155404765,BOP00_1A,,0,,Pacific/Auckland,,,0,
20001495,1495,,Milton Road - Goods Road - East,"3 Milton Road, Otumoetai, Tauranga",-37.676053698,176.154570576,BOP00_1A,,0,,Pacific/Auckland,,,0,
20001496,1496,,Milton Road - Goods Road - West,"2 Milton Road, Otumoetai, Tauranga",-37.676156631,176.154536771,BOP00_1A,,0,,Pacific/Auckland,,,0,
20001497,1497,,Milton Road - Karaka Road,"57 Milton Road, Otumoetai, Tauranga",-37.675941893,176.150607261,BOP00_1A,,0,,Pacific/Auckland,,,0,
20001498,1498,,Milton Road - Opposite Karaka Road,"54 Milton Road, Otumoetai, Tauranga",-37.675959618,176.150975766,BOP00_1A,,0,,Pacific/Auckland,,,0,
20001499,1499,,Milton Road - Grange Road - East,"95 Milton Road, Otumoetai, Tauranga",-37.67622658,176.147590503,BOP00_1A,,0,,Pacific/Auckland,,,0,
20001500,1500,,Milton Road - Grange Road - West,"92 Milton Road, Otumoetai, Tauranga",-37.676391664,176.148017284,BOP00_1A,,0,,Pacific/Auckland,,,0,
20001501,1501,,Grenada Street - Fahey Ave,"98 Grenada Street, Mount Maunganui",-37.679369304,176.235364263,BOP00_1A,,0,,Pacific/Auckland,,,0,
20001502,1502,,Otumoetai College,"100 Windsor Road, Bellevue, Tauranga",-37.680168081,176.128456669,BOP00_1A,,0,,Pacific/Auckland,,,0,
20001503,1503,,Greenpark School,"1468 Cameron Road, Greerton, Tauranga",-37.732415308,176.126255751,BOP00_1A,,0,,Pacific/Auckland,,,0,
20001504,1504,,Maunganui Road - Opposite Library,"389 Maunganui Road, Mount Maunganui",-37.645528988,176.190115065,BOP00_1A,,0,,Pacific/Auckland,,,0,
20001505,1505,,Lakes Boulevard - Caldera Crescent,"Lakes Boulevard, Pyes Pa, Tauranga",-37.739448737,176.109222453,BOP00_1A,,0,,Pacific/Auckland,,,0,
20001506,1506,,Maunganui Road - Tay Street,"462 Maunganui Road, Mount Maunganui",-37.650629311257624,176.19335428161475,BOP00_1A,,0,,Pacific/Auckland,,,0,
20001507,1507,,Maunganui Road - Blake Park,"1A Tay Street, Mount Maunganui",-37.65070229355068,176.19326635525152,BOP00_1A,,0,,Pacific/Auckland,,,0,
20001508,1508,,Ranui Street - Strathmore Street,"5 Ranui Street, Matua, Tauranga",-37.664372783,176.13489941,BOP00_1A,,0,,Pacific/Auckland,,,0,
20001509,1509,,Ranui Street - Pah Street,"29 Ranui Street, Matua, Tauranga",-37.662934361,176.135057826,BOP00_1A,,0,,Pacific/Auckland,,,0,
20001511,1511,,Dive Crescent - Opposite Marsh Street,"80 Dive Crescent, Tauranga",-37.674847474,176.169043146,BOP00_1A,,0,,Pacific/Auckland,,,0,
20001512,1512,,Gravatt Road - Papamoa Plaza,"7 Gravatt Road, Papamoa Beach, Papamoa",-37.700730587,176.283507146,BOP00_1A,,0,,Pacific/Auckland,,,0,
20001513,1513,,Ohauiti Road - Kaimai Place,"118 Ohauiti Road, Hairini, Tauranga",-37.732375073,176.1647026,BOP00_1A,,0,,Pacific/Auckland,,,0,
20001514,1514,,Pyes Pa Road - Cheyne Road,"29 Pyes Pa Road, Pyes Pa, Tauranga",-37.737333556,176.122478576,BOP00_1A,,0,,Pacific/Auckland,,,0,
20001515,1515,,Parton Road - Dickson Road,"10 Pompallier Lane, Papamoa Beach, Papamoa",-37.709835022,176.315877428,BOP00_1A,,0,,Pacific/Auckland,,,0,
20001516,1516,,Cameron Road - Maitland Street,"1416A Cameron Road, Greerton, Tauranga",-37.729467715,176.129441196,BOP00_1A,,0,,Pacific/Auckland,,,0,
20001519,1519,,The Mall - Pacific Avenue,"1 Pacific Avenue, Mount Maunganui",-37.63688548,176.1798298,BOP00_1A,,0,,Pacific/Auckland,,,0,
20001520,1520,,Fifteenth Avenue - Devonport Road - West,"164C Fifteenth Avenue, Tauranga South, Tauranga",-37.70550455,176.1566022,BOP00_1A,,0,,Pacific/Auckland,,,0,
20001521,1521,,Oceanbeach Road - McDowell Street,"46A Oceanbeach Road, Mount Maunganui",-37.6576067786364,176.211343342783,BOP00_1A,,0,,Pacific/Auckland,,,0,
20001522,1522,,Oceanbeach Road -  Opposite McDowell Street,"53 Oceanbeach Road, Mount Maunganui",-37.6577657053014,176.211598949934,BOP00_1A,,0,,Pacific/Auckland,,,0,
20001523,1523,,Oceanbeach Road - Tweed Street,"8A Oceanbeach Road, Mount Maunganui",-37.6547568859447,176.207876005328,BOP00_1A,,0,,Pacific/Auckland,,,0,
20001524,1524,,Oceanbeach Road - Moa Street,"3 Oceanbeach Road, Mount Maunganui",-37.65502,176.20844,BOP00_1A,,0,,Pacific/Auckland,,,0,
20001525,1525,,Tweed Street -  Opposite Hart Street,"13 Tweed Street, Mount Maunganui",-37.65331,176.2041,BOP00_1A,,0,,Pacific/Auckland,,,0,
20001526,1526,,Tweed Street - Hart Street,"13 Tweed Street, Mount Maunganui",-37.6532324547392,176.204039415616,BOP00_1A,,0,,Pacific/Auckland,,,0,
20001527,1527,,Chapel Street - Bay Central Shopping Centre,"75 Chapel Street, Tauranga",-37.67287354,176.1631408,BOP00_1A,,0,,Pacific/Auckland,,,0,
20001528,1528,,Papamoa Beach Road - Fronting No.1008,"1008A Papamoa Beach Road, Papamoa Beach, Papamoa",-37.712069,176.32648,BOP00_1A,,0,,Pacific/Auckland,,,0,
20001529,1529,,Papamoa Beach Road - Oceania Sands Way,"213A Papamoa Beach Road, Papamoa Beach, Papamoa",-37.6833576681848,176.253535293972,BOP00_1A,,0,,Pacific/Auckland,,,0,
20001530,1530,,Papamoa Beach Road - Fronting No.216,"216A Papamoa Beach Road, Papamoa Beach, Papamoa",-37.68355919968621,176.2537030017033,BOP00_1A,,0,,Pacific/Auckland,,,0,
20001531,1531,,Coopers Road - Peri Street,"26 Coopers Road, Gate Pa, Tauranga",-37.718357928,176.132130987,BOP00_1A,,0,,Pacific/Auckland,,,0,
20001533,1533,,Brookfield Medical Centre,"68 Bureta Road, Otumoetai, Tauranga",-37.6709,176.1526,BOP00_1A,,0,,Pacific/Auckland,,,0,
20001534,1534,,Bureta Road - Brookfield Medical Centre,"69 Bureta Road, Otumoetai, Tauranga",-37.6708,176.1524,BOP00_1A,,0,,Pacific/Auckland,,,0,
20001535,1535,,Pillans Road,"1/92 Pillans Road, Otumoetai, Tauranga",-37.6734,176.1542,BOP00_1A,,0,,Pacific/Auckland,,,0,
20001536,1536,,Pillans Road - Pine Avenue,"115 Pillans Road, Otumoetai, Tauranga",-37.6734,176.1538,BOP00_1A,,0,,Pacific/Auckland,,,0,
20001540,1540,,Gloucester Road - Hillier Centre,"17 Gloucester Road, Mount Maunganui",-37.6770565,176.2261447,BOP00_1A,,0,,Pacific/Auckland,,,0,
20001541,1541,,Gloucester Road - Monowai Street,"48 Gloucester Road, Mount Maunganui",-37.67941885,176.2273864,BOP00_1A,,0,,Pacific/Auckland,,,0,
20001545,1545,,Doncaster Dr - Opposite Summerland Cr,"50 Doncaster Drive, Papamoa Beach, Papamoa",-37.70748,176.29188,BOP00_1A,,0,,Pacific/Auckland,,,0,
20001546,1546,,Doncaster Drive - Summerland Crescent,"50 Doncaster Drive, Papamoa Beach, Papamoa",-37.70743,176.29192,BOP00_1A,,0,,Pacific/Auckland,,,0,
20001547,1547,,Doncaster Drive - Carrington Drive,"95 Doncaster Drive, Papamoa Beach, Papamoa",-37.70885,176.29564,BOP00_1A,,0,,Pacific/Auckland,,,0,
20001548,1548,,Doncaster Drive Reserve,"94 Doncaster Drive, Papamoa Beach, Papamoa",-37.70891,176.2956,BOP00_1A,,0,,Pacific/Auckland,,,0,
20001549,1549,,Doncaster Drive - Opposite Papamoa College,"178 Doncaster Drive, Papamoa Beach, Papamoa",-37.71255,176.30021,BOP00_1A,,0,,Pacific/Auckland,,,0,
20001550,1550,,Doncaster Drive - Papamoa College,"176 Doncaster Drive, Papamoa Beach, Papamoa",-37.712577288988,176.30039118316,BOP00_1A,,0,,Pacific/Auckland,,,0,
20001551,1551,,Golden Sands Drive,"1200 Papamoa Beach Road, Papamoa Beach, Papamoa",-37.71817021782108,176.34238930738024,BOP00_1A,,0,,Pacific/Auckland,,,0,
20001552,1552,,Wairakei Avenue - Sarah Place,"1 Toetoe Street, Papamoa Beach, Papamoa",-37.719317231141,176.34366960805,BOP00_1A,,0,,Pacific/Auckland,,,0,
20001553,1553,,Wairakei Avenue - Euphorbia Street,"129 Wairakei Avenue, Papamoa Beach, Papamoa",-37.72069157212,176.34433145013,BOP00_1A,,0,,Pacific/Auckland,,,0,
20001554,1554,,Wairakei Avenue - Torbin Place,"147 Wairakei Avenue, Papamoa Beach, Papamoa",-37.721626480321,176.34604227026,BOP00_1A,,0,,Pacific/Auckland,,,0,
20001555,1555,,Wairakei Avenue - Emerald Shores Reserve,"177 Wairakei Avenue, Papamoa Beach, Papamoa",-37.723,176.349,BOP00_1A,,0,,Pacific/Auckland,,,0,
20001556,1556,,Emerald Shores Drive - Opposite Nautilus Drive,"11 Emerald Shores Drive, Papamoa Beach, Papamoa",-37.7224190860935,176.350867512223,BOP00_1A,,0,,Pacific/Auckland,,,0,
20001557,1557,,Doncaster Drive - Lewknor Drive,"137 Doncaster Drive, Papamoa Beach, Papamoa",-37.71022685,176.2999085,BOP00_1A,,0,,Pacific/Auckland,,,0,
20001558,1558,,Parton Road - Gordon Spratt Reserve,"R/230 Parton Road, Papamoa Beach, Papamoa",-37.7129774,176.3098261,BOP00_1A,,0,,Pacific/Auckland,,,0,
20001559,1559,,Parton Road - Papamoa Primary School,"80 Parton Road, Papamoa Beach, Papamoa",-37.7107973,176.3137978,BOP00_1A,,0,,Pacific/Auckland,,,0,
20001560,1560,,Papamoa Beach Road - Emerald Shores Drive,"1286 Papamoa Beach Road, Papamoa Beach, Papamoa",-37.72077587,176.3503602,BOP00_1A,,0,,Pacific/Auckland,,,0,
20001561,1561,,Gloucester Road - Lambeth Terrace,"44 Gloucester Road, Mount Maunganui",-37.67915169,176.2270776,BOP00_1A,,0,,Pacific/Auckland,,,0,
20001562,1562,,Gloucester Road - Eversham Road,"22 Gloucester Road, Mount Maunganui",-37.67731169,176.2260909,BOP00_1A,,0,,Pacific/Auckland,,,0,
20001567,1567,,Grenada Street - Reilly Avenue Reserve,"196 Grenada Street, Mount Maunganui",-37.6813955,176.239183,BOP00_1A,,0,,Pacific/Auckland,,,0,
20001568,1568,,Doncaster Drive - Fronting 140,"140 Doncaster Drive, Papamoa Beach, Papamoa",-37.71034805,176.2996949,BOP00_1A,,0,,Pacific/Auckland,,,0,
20001569,1569,,Parton Road - Enterprise Drive,"19/60 Parton Road, Papamoa Beach, Papamoa",-37.71052668,176.314618,BOP00_1A,,0,,Pacific/Auckland,,,0,
20001570,1570,,Aquinas College,"185 Pyes Pa Road, Pyes Pa, Tauranga",-37.751889,176.121228,BOP00_1A,,0,,Pacific/Auckland,,,0,
20001571,1571,,Condor Drive - The Boulevard,"73 Condor Drive, Pyes Pa, Tauranga",-37.7468128279497,176.131538995757,BOP00_1A,,0,,Pacific/Auckland,,,0,
20001572,1572,,Inverness Drive - Veda Place,"56 Inverness Drive, Pyes Pa, Tauranga",-37.748059639667,176.12601775614,BOP00_1A,,0,,Pacific/Auckland,,,0,
20001573,1573,,Lakes Boulevard - Opposite Boulder Lane,"185 Lakes Boulevard, Pyes Pa, Tauranga - Opposite Boulder Lane",-37.7523335224674,176.104337241992,BOP00_1A,,0,,Pacific/Auckland,,,0,
20001574,1574,,Tauranga Crossing,"2 Taurikura Drive, Tauriko, Tauranga",-37.7393080971331,176.104156420129,BOP00_1A,,0,,Pacific/Auckland,,,0,
20001583,1583,,Corinna Street - Arawata Avenue,"12 Arawata Avenue, Welcome Bay, Tauranga",-37.72608973108436,176.1983211475104,BOP00_1A,,0,,Pacific/Auckland,,,0,
20001587,1587,,Bayfair Drive - Claridge Place,"3A Bayfair Drive, Mount Maunganui",-37.67936183,176.2114439,BOP00_1A,,0,,Pacific/Auckland,,,0,
20001589,1589,,Beaumaris Boulevard - Bethlehem Heights,"112 Beaumaris Boulevard, Bethlehem, Tauranga",-37.69685655,176.1212063,BOP00_1A,,0,,Pacific/Auckland,,,0,
20001590,1590,,Bethlehem College,"24 Elder Lane, Bethlehem, Tauranga",-37.7054967,176.1108082,BOP00_1A,,0,,Pacific/Auckland,,,0,
20001596,1596,,Cambridge Road - Fronting 253,"253 Cambridge Road, Bethlehem, Tauranga",-37.711338,176.1197857,BOP00_1A,,0,,Pacific/Auckland,,,0,
20001602,1602,,Cambridge Road - Bethlehem Views,"186 Cambridge Road, Bethlehem, Tauranga",-37.70385572,176.1276048,BOP00_1A,,0,,Pacific/Auckland,,,0,
20001606,1606,,Cambridge Road - Kelston Way,"390 Cambridge Road, Tauriko, Tauranga",-37.72249597230299,176.10952757598972,BOP00_1A,,0,,Pacific/Auckland,,,0,
20001625,1625,,Cameron Road - Countdown Supermarket,"640 Cameron Road, Tauranga South, Tauranga",-37.70075119,176.1571369,BOP00_1A,,0,,Pacific/Auckland,,,0,
20001635,1635,,Carmichael Road - Tall Oaks Way,"97 Carmichael Road, Bethlehem, Tauranga",-37.68937664,176.108939,BOP00_1A,,0,,Pacific/Auckland,,,0,
20001655,1655,,Concord Avenue,"77A Concord Avenue, Mount Maunganui",-37.66845695,176.2241439,BOP00_1A,,0,,Pacific/Auckland,,,0,
20001671,1671,,Domain Road - Papamoa Beach Road,"2 Domain Road, Papamoa Beach, Papamoa",-37.6976923075184,176.28470679861,BOP00_1A,,0,,Pacific/Auckland,,,0,
20001672,1672,,Dickson Road - Opposite Allan Place,"58 Dickson Road, Papamoa Beach, Papamoa",-37.70045819597,176.289346969583,BOP00_1A,,0,,Pacific/Auckland,,,0,
20001676,1676,,Domain Road - Pacific Cove Drive,"2 Pacific Cove Drive, Papamoa Beach, Papamoa",-37.70577662,176.2846856,BOP00_1A,,0,,Pacific/Auckland,,,0,
20001682,1682,,Emerald Shores Drive - Nautilus Drive,"11 Emerald Shores Drive, Papamoa Beach, Papamoa",-37.7224721466089,176.351009534722,BOP00_1A,,0,,Pacific/Auckland,,,0,
20001685,1685,,Fifteenth Avenue - Devonport Road - East,"167 Fifteenth Avenue, Tauranga South, Tauranga",-37.7054699920858,176.156937052616,BOP00_1A,,0,,Pacific/Auckland,,,0,
20001693,1693,,Fraser Street - Kesteven Avenue,"417 Fraser Street, Parkvale, Tauranga",-37.7211195252224,176.145328327528,BOP00_1A,,0,,Pacific/Auckland,,,0,
20001694,1694,,Fraser Street - Waimapu Street,"566 Fraser Street, Greerton, Tauranga",-37.7284599561879,176.140946336493,BOP00_1A,,0,,Pacific/Auckland,,,0,
20001695,1695,,Fraser Street - Thirteenth Avenue - South,"68 Fraser Street, Tauranga South, Tauranga",-37.70473600337058,176.16119996319748,BOP00_1A,,0,,Pacific/Auckland,,,0,
20001702,1702,,Girven Road - Shops,"73 Girven Road, Mount Maunganui",-37.67307148,176.2305867,BOP00_1A,,0,,Pacific/Auckland,,,0,
20001703,1703,,Girven Road - Opposite Shops,"78 Girven Road, Mount Maunganui",-37.67314635,176.2307017,BOP00_1A,,0,,Pacific/Auckland,,,0,
20001725,1725,,Grenada Street - Sunrise Avenue,"241 Grenada Street, Mount Maunganui",-37.6823358196275,176.241593159376,BOP00_1A,,0,,Pacific/Auckland,,,0,
20001726,1726,,Grenada Street - Aranui Drive,"583 Grenada Street, Papamoa Beach, Papamoa",-37.68690063234306,176.249762743681,BOP00_1A,,0,,Pacific/Auckland,,,0,
20001727,1727,,555 Grenada Street - Coast Boulevard,"555 Grenada Street, Papamoa Beach, Papamoa",-37.68543,176.248663,BOP00_1A,,0,,Pacific/Auckland,,,0,
20001728,1728,,Hairini Street,"1 Hairini Street, Hairini, Tauranga",-37.72403836,176.166896,BOP00_1A,,0,,Pacific/Auckland,,,0,
20001743,1743,,Hollister Lane - Brackenburn Drive,"48 Hollister Lane, Ohauiti",-37.7422396,176.1537974,BOP00_1A,,0,,Pacific/Auckland,,,0,
20001744,1744,,Hollister Lane,"96 Hollister Lane, Ohauiti",-37.7442595,176.1536121,BOP00_1A,,0,,Pacific/Auckland,,,0,
20001748,1748,,James Cook Drive - Victory Street,"74 James Cook Drive, Welcome Bay, Tauranga",-37.72690967472589,176.1855030744428,BOP00_1A,,0,,Pacific/Auckland,,,0,
20001749,1749,,Welcome Bay Road - Faith Bible College,"R/759 Welcome Bay Road, Waitao",-37.7184176363778,176.241583320591,BOP00_1A,,0,,Pacific/Auckland,,,0,
20001750,1750,,Welcome Bay Road - Te Puke Highway,"R/1222 Welcome Bay Road, Papamoa",-37.7237168049809,176.284223911889,BOP00_1A,,0,,Pacific/Auckland,,,0,
20001757,1757,,Kiteroa Street - Greerton Aquatic Centre,"8 Kiteroa Street, Greerton, Tauranga",-37.73173391,176.1325221,BOP00_1A,,0,,Pacific/Auckland,,,0,
20001760,1760,,Lakes Boulevard - Opposite Caldera Crescent,"43 Bridgewater Way, Pyes Pa, Tauranga",-37.7397320752354,176.109122122596,BOP00_1A,,0,,Pacific/Auckland,,,0,
20001761,1761,,Lakeview Quay,"17 Lakeview Quay, Pyes Pa, Tauranga",-37.74366329057456,176.10902925232483,BOP00_1A,,0,,Pacific/Auckland,,,0,
20001767,1767,,Levers Road - Matua Park,"110 Levers Road, Matua, Tauranga",-37.6652841846059,176.132634247394,BOP00_1A,,0,,Pacific/Auckland,,,0,
20001768,1768,,Ohauiti Rd -  Welcome bay Rd - Stand A,"12 Sycamore Court, Hairini, Tauranga",-37.72840310277894,176.1676276724624,BOP00_1A,,0,,Pacific/Auckland,,,0,
20001769,1769,,Ohauiti Rd - Welcome Bay Rd - Stand B,"12 Sycamore Court, Hairini, Tauranga",-37.7276630619398,176.168457894186,BOP00_1A,,0,,Pacific/Auckland,,,0,
20001776,1776,,Maihi Crescent,"17 Maihi Crescent, Maungatapu, Tauranga",-37.71408343,176.1869422,BOP00_1A,,0,,Pacific/Auckland,,,0,
20001782,1782,,Marine Parade - Sutherland Avenue,"96 Marine Parade, Mount Maunganui",-37.642985967031,176.19339441485,BOP00_1A,,0,,Pacific/Auckland,,,0,
20001783,1783,,Marine Parade - Tay Street,"148A Marine Parade, Mount Maunganui",-37.6467005971135,176.198171282893,BOP00_1A,,0,,Pacific/Auckland,,,0,
20001784,1784,,Marine Parade - Clyde Street,"178 Marine Parade, Mount Maunganui",-37.64981961,176.2021402,BOP00_1A,,0,,Pacific/Auckland,,,0,
20001785,1785,,Marine Parade - Grove Avenue,"73 Marine Parade, Mount Maunganui",-37.6400710865404,176.190363308184,BOP00_1A,,0,,Pacific/Auckland,,,0,
20001792,1792,,Maungatapu Primary School,"164 Maungatapu Road, Maungatapu, Tauranga",-37.72188312,176.1736588,BOP00_1A,,0,,Pacific/Auckland,,,0,
20001796,1796,,Miles Lane (Fasching Lane Stop),"48 Miles Lane, Tauriko, Tauranga",-37.723896358796,176.10237504665,BOP00_1A,,0,,Pacific/Auckland,,,0,
20001807,1807,,Moffat Road - Moffat Way,"176 Moffat Road, Bethlehem, Tauranga",-37.69825852,176.1127535,BOP00_1A,,0,,Pacific/Auckland,,,0,
20001809,1809,,Mount Maunganui College,"565 Maunganui Road, Tauranga",-37.662431632396306,176.20624478106498,BOP00_1A,,0,,Pacific/Auckland,,,0,
20001810,1810,,Mount Maunganui Intermediate,"22C Links Avenue, Mount Maunganui",-37.66585260825138,176.21091764521503,BOP00_1A,,0,,Pacific/Auckland,,,0,
20001811,1811,,Ngatai Road - Short Street,"188 Ngatai Road, Otumoetai, Tauranga",-37.66664985,176.1466595,BOP00_1A,,0,,Pacific/Auckland,,,0,
20001812,1812,,Ngatai Road - Tauranga Bridge Club,"246 Ngatai Road, Otumoetai, Tauranga",-37.6656775,176.1417359,BOP00_1A,,0,,Pacific/Auckland,,,0,
20001817,1817,,Oceanbeach Road  - Surf Road,"113A Oceanbeach Road, Mount Maunganui",-37.6599576436061,176.215100447728,BOP00_1A,,0,,Pacific/Auckland,,,0,
20001818,1818,,Oceanbeach Road,"156 Oceanbeach Road, Mount Maunganui",-37.6628648148376,176.219164296811,BOP00_1A,,0,,Pacific/Auckland,,,0,
20001819,1819,,Oceanbeach Road - Concord Avenue,"244 Oceanbeach Road, Mount Maunganui",-37.6672187494029,176.22524804618462,BOP00_1A,,0,,Pacific/Auckland,,,0,
20001820,1820,,Oceanbeach Road - Fronting 177,"177 Oceanbeach Road, Mount Maunganui",-37.6631602836716,176.219855185444,BOP00_1A,,0,,Pacific/Auckland,,,0,
20001822,1822,,Maranui Street - Fronting 49a,"49A Maranui Street, Mount Maunganui",-37.6750870481076,176.237275051858,BOP00_1A,,0,,Pacific/Auckland,,,0,
20001823,1823,,Oceanbeach Road - Berescourt Reserve,"224 Oceanbeach Road, Mount Maunganui",-37.6662744229948,176.223420114507,BOP00_1A,,0,,Pacific/Auckland,,,0,
20001824,1824,,Maranui Street - Yale St,"77  Maranui Street, Mount Maunganui",-37.6764519141206,176.239554686565,BOP00_1A,,0,,Pacific/Auckland,,,0,
20001826,1826,,Oceanbeach Road - Girven Road,"338 Oceanbeach Road, Mount Maunganui",-37.671440659275,176.23191989891,BOP00_1A,,0,,Pacific/Auckland,,,0,
20001827,1827,,Oceanview Road  - Fronting 128,"128 Oceanview Road, Mount Maunganui",-37.64625551,176.194089,BOP00_1A,,0,,Pacific/Auckland,,,0,
20001828,1828,,Oceanview Road  - Terrace Avenue,"123A Oceanview Road, Mount Maunganui",-37.6456849,176.1937025,BOP00_1A,,0,,Pacific/Auckland,,,0,
20001829,1829,,Oceanview Road - Sutherland Avenue - West,"80 Oceanview Road, Mount Maunganui",-37.64325256,176.1908376,BOP00_1A,,0,,Pacific/Auckland,,,0,
20001830,1830,,Oceanview Road - Sutherland Avenue - East,"89 Oceanview Road, Mount Maunganui",-37.64352877,176.1913671,BOP00_1A,,0,,Pacific/Auckland,,,0,
20001833,1833,,Papamoa Beach Road - Te Ara Place,"254 Papamoa Beach Road, Papamoa Beach, Papamoa",-37.6851480938583,176.257028641891,BOP00_1A,,0,,Pacific/Auckland,,,0,
20001835,1835,,Cameron Road - Te Puke Intermediate,"132 Cameron Road, Te Puke",-37.796076211527,176.315976579867,BOP00_2A,,0,,Pacific/Auckland,,,0,
20001836,1836,,Cameron Road - Tui Street,"Opposite 75A Cameron Road, Te Puke",-37.7890014278605,176.317014722444,BOP00_2A,,0,,Pacific/Auckland,,,0,
20001837,1837,,Macloughlin Drive - Fronting No. 21,"21 MacLoughlin Drive, Te Puke",-37.783552113602035,176.30484873013984,BOP00_2A,,0,,Pacific/Auckland,,,0,
20001838,1838,,Number Three Road - Te Puke Highway,"1 No 3 Road, Te Puke",-37.7763686486583,176.308516119323,BOP00_2A,,0,,Pacific/Auckland,,,0,
20001841,1841,,Boucher Avenue - Hookey Drive,"96A Boucher Avenue, Te Puke",-37.79424149921844,176.32350193947218,BOP00_2A,,0,,Pacific/Auckland,,,0,
20001842,1842,,Boucher Avenue - Randell Place,"94 Boucher Avenue, Te Puke",-37.79423580782291,176.32365512216813,BOP00_2A,,0,,Pacific/Auckland,,,0,
20001845,1845,,Osprey Drive - Waitaha Road,"130 Osprey Drive, Welcome Bay, Tauranga",-37.7334462165081,176.190351332098,BOP00_1A,,0,,Pacific/Auckland,,,0,
20001847,1847,,Osprey Drive - Pelorus Street,"72 Osprey Drive, Welcome Bay, Tauranga",-37.73474619,176.1862733,BOP00_1A,,0,,Pacific/Auckland,,,0,
20001849,1849,,Osprey Drive - Selwyn Park,"18 Osprey Drive, Welcome Bay, Tauranga",-37.73115095,176.1845272,BOP00_1A,,0,,Pacific/Auckland,,,0,
20001852,1852,,Otumoetai Intermediate School,"5 Charles Street, Bellevue, Tauranga",-37.67562194,176.1293757,BOP00_1A,,0,,Pacific/Auckland,,,0,
20001884,1884,,Papamoa Beach Road - Opposite Evans Road,"314B Papamoa Beach Road, Papamoa Beach, Papamoa",-37.6879030555539,176.262701933854,BOP00_1A,,0,,Pacific/Auckland,,,0,
20001886,1886,,Papamoa Beach Road - Evans Road,"314A Papamoa Beach Road, Papamoa Beach, Papamoa",-37.6878593858701,176.262442740207,BOP00_1A,,0,,Pacific/Auckland,,,0,
20001887,1887,,Papamoa Beach Road - Bermuda Drive,"28 Mauritius Key, Papamoa Beach, Papamoa",-37.6907776586298,176.268389234237,BOP00_1A,,0,,Pacific/Auckland,,,0,
20001896,1896,,Papamoa College,"168 Doncaster Drive, Papamoa Beach, Papamoa",-37.71184714,176.3008133,BOP00_1A,,0,,Pacific/Auckland,,,0,
20001915,1915,,Cambridge Road - River Oaks Drive,"2 River Oaks Drive, Tauriko, Tauranga",-37.73042071,176.1030152,BOP00_1A,,0,,Pacific/Auckland,,,0,
20001919,1919,,Rowesdale Drive - Autumn Place,"79 Rowesdale Drive, Ohauiti",-37.74981170640513,176.1586057292044,BOP00_1A,,0,,Pacific/Auckland,,,0,
20001921,1921,,Russley Drive - Ngamotu Place,"16 Russley Drive, Mount Maunganui",-37.67830448,176.2187431,BOP00_1A,,0,,Pacific/Auckland,,,0,
20001922,1922,,Russley Drive - Laburnum Glen,"58 Russley Drive, Mount Maunganui",-37.68038543,176.2162268,BOP00_1A,,0,,Pacific/Auckland,,,0,
20001941,1941,,Thirteenth Avenue - Tauranga Boys' College,"151 Thirteenth Avenue, Tauranga South, Tauranga",-37.70169471,176.1575151,BOP00_1A,,0,,Pacific/Auckland,,,0,
20001942,1942,,Tauranga Girls' College,"32 Twentysecond Avenue, Gate Pa, Tauranga",-37.71394056,176.1442476,BOP00_1A,,0,,Pacific/Auckland,,,0,
20001943,1943,,Tauranga Intermediate School,"30 Eighteenth Avenue, Tauranga South, Tauranga",-37.71214654,176.1560019,BOP00_1A,,0,,Pacific/Auckland,,,0,
20001945,1945,,Tay Street  - Valley Road,"24 Tay Street, Mount Maunganui",-37.64868927,176.1961049,BOP00_1A,,0,,Pacific/Auckland,,,0,
20001949,1949,,Te Hono Street - Fronting No. 103,"103 Te Hono Street, Maungatapu, Tauranga",-37.71264065,176.1885759,BOP00_1A,,0,,Pacific/Auckland,,,0,
20001952,1952,,Te Hono Street -  Te Wati  Street,"2 Te Wati Street, Maungatapu, Tauranga",-37.71414172,176.1850856,BOP00_1A,,0,,Pacific/Auckland,,,0,
20001959,1959,,St Mary's Primary School,"11 Thirteenth Avenue, Tauranga South, Tauranga",-37.70660175,176.1657673,BOP00_1A,,0,,Pacific/Auckland,,,0,
20001974,1974,,Valley Road - Dee Street,"129 Valley Road, Mount Maunganui",-37.65446298,176.203712,BOP00_1A,,0,,Pacific/Auckland,,,0,
20001976,1976,,Valley Road - Tweed Street - East,"103 Valley Road, Mount Maunganui",-37.65285984,176.2013287,BOP00_1A,,0,,Pacific/Auckland,,,0,
20001977,1977,,Valley Road - Tweed Street,"108A Valley Road, Mount Maunganui",-37.65288007,176.2010792,BOP00_1A,,0,,Pacific/Auckland,,,0,
20001978,1978,,Valley Road - Clyde Street - East,"61A Valley Road, Mount Maunganui",-37.6506419,176.1977079,BOP00_1A,,0,,Pacific/Auckland,,,0,
20001979,1979,,Valley Road - Clyde Street,"72B Valley Road, Mount Maunganui",-37.6511117,176.1981408,BOP00_1A,,0,,Pacific/Auckland,,,0,
20001981,1981,,Victory Street - Archilles Crescent,"43 Victory Street, Welcome Bay, Tauranga",-37.7287139237413,176.184882641741,BOP00_1A,,0,,Pacific/Auckland,,,0,
20001983,1983,,Victory Street - Cumberland Crescent,"81 Victory Street, Welcome Bay, Tauranga",-37.73008597,176.18392,BOP00_1A,,0,,Pacific/Auckland,,,0,
20001986,1986,,Waihi Road - Judea Road,"108 Waihi Road, Judea, Tauranga",-37.69601584,176.1450575,BOP00_1A,,0,,Pacific/Auckland,,,0,
20001988,1988,,Waihi Road - Bell Street,"268 Waihi Road, Judea, Tauranga",-37.69624454,176.1351564,BOP00_1A,,0,,Pacific/Auckland,,,0,
20001991,1991,,Waihi Road - Montgomery Road,"75 Waihi Road, Judea, Tauranga",-37.6968370720556,176.148394778997,BOP00_1A,,0,,Pacific/Auckland,,,0,
20001994,1994,,Waikite Road - Fronting No. 52,"52 Waikite Road, Welcome Bay, Tauranga",-37.7318327548645,176.201925715323,BOP00_1A,,0,,Pacific/Auckland,,,0,
20001995,1995,,Ballintoy Park Drive - Waikite Road,"5 Ballintoy Park Drive, Welcome Bay, Tauranga",-37.7423167858569,176.203090527555,BOP00_1A,,0,,Pacific/Auckland,,,0,
20001996,1996,,Waikite Road - Holcombrooke Lane,"136 Waikite Road, Welcome Bay, Tauranga",-37.7395408061962,176.20228882511,BOP00_1A,,0,,Pacific/Auckland,,,0,
20001997,1997,,Waikite Road - Oceana Drive,"1 Oceana Drive, Welcome Bay, Tauranga",-37.7344382426937,176.201330138945,BOP00_1A,,0,,Pacific/Auckland,,,0,
20001998,1998,,Wairakei Avenue - Shaun Close,"150 Wairakei Avenue, Papamoa Beach, Papamoa",-37.72152462,176.3452892,BOP00_1A,,0,,Pacific/Auckland,,,0,
20002000,2000,,Wairakei Avenue - Millie Court,"173 Wairakei Avenue, Papamoa Beach, Papamoa",-37.72288925,176.3485748,BOP00_1A,,0,,Pacific/Auckland,,,0,
20002004,2004,,Waitaha Road - Village Park Drive,"111 Waitaha Road, Welcome Bay, Tauranga",-37.72926643,176.1908678,BOP00_1A,,0,,Pacific/Auckland,,,0,
20002015,2015,,Welcome Bay Road - Oteki Park Drive,"356 Welcome Bay Road, Welcome Bay, Tauranga",-37.72769132,176.1988168,BOP00_1A,,0,,Pacific/Auckland,,,0,
20002019,2019,,Tauranga Primary - Arundel Street,"22 Arundel Street, Tauranga",-37.691953706814324,176.16515764365897,BOP00_1A,,0,,Pacific/Auckland,,,0,
20002024,2024,,Anne Street - Ohope Store,"311 Harbour Road, Ohope",-37.982097140274,177.10487242782,BOP00_6A,,0,,Pacific/Auckland,,,0,
20002025,2025,,Awatapu Causeway,"Awatapu Drive, Whakatane",-37.96882360664,176.97402021914,BOP00_6A,,0,,Pacific/Auckland,,,0,
20002026,2026,,Awatapu Causeway - Westbound,"Awatapu Drive, Whakatane",-37.968834617343,176.97379454241,BOP00_6A,,0,,Pacific/Auckland,,,0,
20002027,2027,,Awatapu Drive - Fronting No. 111,"111 Awatapu Drive, Whakatane",-37.965704773096,176.96234833867,BOP00_6A,,0,,Pacific/Auckland,,,0,
20002028,2028,,Awatapu Drive - Fronting No. 23,"23 Awatapu Drive, Whakatane",-37.967678976795,176.97058541928,BOP00_6A,,0,,Pacific/Auckland,,,0,
20002029,2029,,Awatapu Drive - Reserve,"46a Awatapu Drive, Whakatane",-37.9670007706971,176.966863468666,BOP00_6A,,0,,Pacific/Auckland,,,0,
20002030,2030,,Awatapu Drive - Farnworth,"55 Awatapu Drive, Whakatane",-37.96709271427741,176.96684860890554,BOP00_6A,,0,,Pacific/Auckland,,,0,
20002031,2031,,Awatapu Drive - Edgewater Grove,"23 Awatapu Drive, Whakatane",-37.967590740949,176.97060303363,BOP00_6A,,0,,Pacific/Auckland,,,0,
20002032,2032,,Domain Road - Fronting No. 83,"83 Domain Road, Whakatane",-37.958549243563,176.98455425929,BOP00_6A,,0,,Pacific/Auckland,,,0,
20002033,2033,,Fenton Mill Rd - Putauaki School,"76 Fenton Mill Road, Kawerau",-38.090011743243,176.68499055724,BOP00_4C,,0,,Pacific/Auckland,,,0,
20002034,2034,,Goulstone Road - Fronting No. 74,"74A Goulstone Road, Whakatane",-37.962652465647,176.98319978722,BOP00_6A,,0,,Pacific/Auckland,,,0,
20002035,2035,,Goulstone Road - Fronting No. 79,"79 Goulstone Road, Whakatane",-37.962728304413,176.98279132514,BOP00_6A,,0,,Pacific/Auckland,,,0,
20002036,2036,,Goulstone Road - Fronting No. 15 (Rex Morpeth Park),"15 Goulstone Road, Whakatane",-37.963392,176.990211,BOP00_6A,,0,,Pacific/Auckland,,,0,
20002037,2037,,Goulstone Road - Rex Morpeth Park,"7 Goulstone Road, Whakatane",-37.963225745639,176.99115395027,BOP00_6A,,0,,Pacific/Auckland,,,0,
20002038,2038,,Harbour Road - Fronting No. 19,"19 Harbour Road, Ohope",-37.975157443255,177.07099311399,BOP00_6A,,0,,Pacific/Auckland,,,0,
20002039,2039,,Harbour Road - Fronting No. 309 (Ohope Store),"311 Harbour Road, Ohope",-37.982150059376,177.10469559311,BOP00_6A,,0,,Pacific/Auckland,,,0,
20002040,2040,,Harbour Road - Fronting No. 340 (Port Ohope Wharf),"341 Harbour Road, Ohope",-37.982585351056,177.10812765776,BOP00_6A,,0,,Pacific/Auckland,,,0,
20002041,2041,,Harbour Road - Fronting No. 345 (Port Ohope Wharf),"343 Harbour Road, Ohope",-37.982609482184,177.1086047921,BOP00_6A,,0,,Pacific/Auckland,,,0,
20002042,2042,,James Street - Fronting No. 191,"191 James Street, Whakatane",-37.960984897964,176.96195470102,BOP00_6A,,0,,Pacific/Auckland,,,0,
20002043,2043,,James Street - Fronting No. 192,"192 James Street, Whakatane",-37.960888306805,176.96214184388,BOP00_6A,,0,,Pacific/Auckland,,,0,
20002044,2044,,James Street - Fronting No. 55,"55 James Street, Whakatane",-37.961258794537,176.97588085174,BOP00_6A,,0,,Pacific/Auckland,,,0,
20002045,2045,,James Street - Fronting No. 62,"62 James Street, Whakatane",-37.96106951467,176.9752533365,BOP00_6A,,0,,Pacific/Auckland,,,0,
20002046,2046,,James Street - Fronting No. 9,"11 James Street, Whakatane",-37.961431198843,176.9810611135,BOP00_6A,,0,,Pacific/Auckland,,,0,
20002047,2047,,James Street - Opposite Intermediate,"110 James Street, Whakatane",-37.960937390164,176.97031310919,BOP00_6A,,0,,Pacific/Auckland,,,0,
20002048,2048,,James Street Intermediate,"105 James Street, Whakatane",-37.960996056902,176.97056146127,BOP00_6A,,0,,Pacific/Auckland,,,0,
20002051,2051,,King Street - Fronting No. 8,"8A King Street, Whakatane",-37.959062738109,176.98210648725,BOP00_6A,,0,,Pacific/Auckland,,,0,
20002052,2052,,Ocean Road - Fronting No. 356,"356 Ocean Road, Ohope",-37.980947063822,177.10446085807,BOP00_6A,,0,,Pacific/Auckland,,,0,
20002053,2053,,Pohutukawa Ave - Ohope Beach School,"170 Pohutukawa Avenue, Ohope",-37.969320904839,177.0492879053,BOP00_6A,,0,,Pacific/Auckland,,,0,
20002054,2054,,Pohutukawa Avenue - Fronting No. 169,"169 Pohutukawa Avenue, Ohope",-37.968628272065,177.0482710304,BOP00_6A,,0,,Pacific/Auckland,,,0,
20002055,2055,,Pohutukawa Avenue - Fronting No. 295,"295 Pohutukawa Avenue, Ohope",-37.973557684867,177.06417730618,BOP00_6A,,0,,Pacific/Auckland,,,0,
20002056,2056,,River Road - Fronting No. 202,"202 River Road, Kawerau",-38.0954299,176.70432,BOP00_4C,,0,,Pacific/Auckland,,,0,
20002057,2057,,River Road - Fronting No. 270,"270 River Road, Kawerau",-38.09864022798,176.69975642781,BOP00_4C,,0,,Pacific/Auckland,,,0,
20002058,2058,,River Road - Fronting No. 326,"326 River Road, Kawerau",-38.095680169631,176.69415070213,BOP00_4C,,0,,Pacific/Auckland,,,0,
20002059,2059,,River Road - Fronting No. 376,"376 River Road, Kawerau",-38.090969212938,176.69285078321,BOP00_4C,,0,,Pacific/Auckland,,,0,
20002060,2060,,River Road - Opposite No. 25,"25 River Road, Kawerau",-38.081273943025,176.71045020406,BOP00_4C,,0,,Pacific/Auckland,,,0,
20002061,2061,,State Highway 30 - Fronting No. 36,"38 State Highway 30 Te Teko, Te Teko",-38.036200278065,176.79472438425,BOP00_5A,,0,,Pacific/Auckland,,,0,
20002062,2062,,Stewart Street - Fronting No. 2,"2 Stewart Street, Whakatane",-37.963507041643,176.98158303602,BOP00_6A,,0,,Pacific/Auckland,,,0,
20002063,2063,,Stewart Street - Fronting No. 5,"5 Stewart Street, Whakatane",-37.963587983159,176.98128388924,BOP00_6A,,0,,Pacific/Auckland,,,0,
20002064,2064,,Hinemoa St - Fronting 72,"72 Hinemoa St, Whakatane",-37.96407876314262,176.97417013588097,BOP00_6A,,0,,Pacific/Auckland,,,0,
20002065,2065,,Hinemoa St - Fronting 69,"69 Hinemoa St, Whakatane",-37.96408050813256,176.97425713925412,BOP00_6A,,0,,Pacific/Auckland,,,0,
20002066,2066,,Tarawera High School,"101 River Road, Kawerau",-38.08766549634,176.70862449921,BOP00_4C,,0,,Pacific/Auckland,,,0,
20002067,2067,,Te Akau Street - Fronting No. 4,"2 Te Akau Street, Ohope",-37.973026507665,177.06399612116,BOP00_6A,,0,,Pacific/Auckland,,,0,
20002068,2068,,Te Taiawatea Drive,"34 Te Taiawatea Drive, Ohope",-37.9855116,177.1178847,BOP00_6A,,0,,Pacific/Auckland,,,0,
20002069,2069,,Te Puke - Commerce Lane,"35 Commerce Lane, Te Puke",-37.7842621722285,176.328678079727,BOP00_2A,,0,,Pacific/Auckland,,,0,
20002070,2070,,Beach Road - Maketu,"3 Beach Road, Maketu",-37.75847919787307,176.4528459781933,BOP00_2A,,0,,Pacific/Auckland,,,0,
20002071,2071,,Peter Lippa Drive - Fronting No 62,"62 Peter Lippa Drive, Kawerau",-38.0960585318238,176.678851228859,BOP00_4C,,0,,Pacific/Auckland,,,0,
20002072,2072,,Valley Road - Fronting No 147,"147 Valley Road, Kawerau",-38.092436277527845,176.67834438466087,BOP00_4C,,0,,Pacific/Auckland,,,0,
20002073,2073,,Tamarangi Drive - Short Street,"Tamarangi Drive, Kawerau",-38.0840230292842,176.695306160089,BOP00_4C,,0,,Pacific/Auckland,,,0,
20002074,2074,,Boon Street  - Fronting No. 32,"26 Boon Street, Whakatane",-37.952739542657,176.99469110126,BOP00_6A,,0,,Pacific/Auckland,,,0,
20002075,2075,,Newall Street - Fronting No 58,"58 Newall Street, Kawerau",-38.0820399,176.7066479,BOP00_4C,,0,,Pacific/Auckland,,,0,
20002076,2076,,Hamurana Road - McDonnell Street,"20 Hamurana Road, Omokoroa",-37.6336915096079,176.044690918152,BOP00_2B,,0,,Pacific/Auckland,,,0,
20002077,2077,,Lexham Park (Binnie Rd),"8 Binnie Road, Katikati",-37.5458058827924,175.924288588134,BOP00_3B,,0,,Pacific/Auckland,,,0,
20002078,2078,,Waihi Beach Surf Club,"7B Beach Road, Waihi Beach",-37.3970821438763,175.937056638562,BOP00_4B,,0,,Pacific/Auckland,,,0,
20002079,2079,,Waihi Beach Community Centre,"106 Beach Road, Waihi Beach",-37.4064276,175.9375078,BOP00_4B,,0,,Pacific/Auckland,,,0,
20002081,2081,,Waihi Beach Information Centre,"26 Wilson Road, Waihi Beach",-37.411486084793,175.94234462414,BOP00_4B,,0,,Pacific/Auckland,,,0,
20002082,2082,,Katikati Information Centre,"31 Main Road, Katikati",-37.5536790160221,175.917205293917,BOP00_3B,,0,,Pacific/Auckland,,,0,
20002083,2083,,Seaforth Road - Emerton Road,"205 Seaforth Road, Waihi Beach",-37.428917101903,175.95802654875,BOP00_4B,,0,,Pacific/Auckland,,,0,
20002084,2084,,James St - Fronting No.12,"12 James Street, Whakatane",-37.9613562863775,176.981307638945,BOP00_6A,,0,,Pacific/Auckland,,,0,
20002085,2085,,Athenree Road - Pohutukawa Drive,"52 Athenree Road, Athenree, Waihi Beach",-37.4451807,175.96221906,BOP00_4B,,0,,Pacific/Auckland,,,0,
20002089,2089,,Katikati - Opposite Information Centre,"33 Main Road, Katikati",-37.5538976015263,175.917287493673,BOP00_3B,,0,,Pacific/Auckland,,,0,
20002090,2090,,Te Puna - 4 Square,"626 State Highway 2, Te Puna",-37.696037772951,176.07170517871,BOP00_1A,,0,,Pacific/Auckland,,,0,
20002091,2091,,Katikati - Countdown,"131 Main Road, Katikati",-37.560026,175.915778,BOP00_3B,,0,,Pacific/Auckland,,,0,
20002092,2092,,Te Puna North,"626 State Highway 2, Te Puna",-37.6960908701912,176.071885253967,BOP00_1A,,0,,Pacific/Auckland,,,0,
20002093,2093,,Katikati Medical Centre,"4 Clive Road, Katikati",-37.5527138,175.9268089,BOP00_3B,,0,,Pacific/Auckland,,,0,
20002094,2094,,Bethlehem Town Centre,"237 State Highway 2, Bethlehem, Tauranga",-37.695514150542,176.10916322779,BOP00_1A,,0,,Pacific/Auckland,,,0,
20002095,2095,,Waihi - New World,"37 Kenny Street, Waihi",-37.3931158,175.8396445,BOP00_4B,,0,,Pacific/Auckland,,,0,
20002096,2096,,Bethlehem North,"228 State Highway 2, Bethlehem, Tauranga",-37.69566175323886,176.10879855092605,BOP00_1A,,0,,Pacific/Auckland,,,0,
20002097,2097,,Waihi - Outside I-Site,"116 Seddon Street, Waihi",-37.3898234,175.8436818,BOP00_4B,,0,,Pacific/Auckland,,,0,
20002098,2098,,Quay Street - Opposite 33 Quay Street,"35 Quay Street, Whakatane",-37.949947550516,176.9988073855,BOP00_6A,,0,,Pacific/Auckland,,,0,
20002099,2099,,Whakatane Hospital (39 Stewart Street),"39 Stewart Street, Whakatane",-37.9635856684397,176.978038195106,BOP00_6A,,0,,Pacific/Auckland,,,0,
20002100,2100,,Pohutukawa Avenue - Opposite Ohope Shops,"34A Pohutukawa Avenue, Ohope",-37.964588335571,177.03649416164,BOP00_6A,,0,,Pacific/Auckland,,,0,
20002101,2101,,Pohutukawa Avenue - Ohope Shops,"27 Pohutukawa Avenue, Ohope",-37.964569335725,177.03674523195,BOP00_6A,,0,,Pacific/Auckland,,,0,
20002102,2102,,Ohope Petrol Station (59 Pohutakawa Ave),"59 Pohutukawa Avenue, Ohope",-37.965291410498,177.038879961377,BOP00_6A,,0,,Pacific/Auckland,,,0,
20002103,2103,,Pohutakawa Ave - Ohope Petrol Station,"62 Pohutukawa Avenue, Ohope",-37.965483839711,177.03907978595,BOP00_6A,,0,,Pacific/Auckland,,,0,
20002106,2106,,Awatapu Drive - Fronting No. 84,"84 Awatapu Drive, Whakatane",-37.965584912063,176.96258184624,BOP00_6A,,0,,Pacific/Auckland,,,0,
20002107,2107,,Whakatane Hospital (30 Stewart Street),"30A Stewart Street, Whakatane",-37.9634865680491,176.978874154596,BOP00_6A,,0,,Pacific/Auckland,,,0,
20002108,2108,,St John Street  - Fronting No. 43,"43 St John Street, Opotiki",-38.011916465333,177.28705436138,BOP00_9A,,0,,Pacific/Auckland,,,0,
20002109,2109,,Ruatahuna,"5900 Ruatahuna Road, Ruatahuna",-38.6136883469099,176.958835412025,BOP01_6,,0,,Pacific/Auckland,,,0,
20002110,2110,,Matata - Arawa Street,"37 Arawa Street, Matata",-37.888508652969,176.75861708221,BOP00_5A,,0,,Pacific/Auckland,,,0,
20002111,2111,,"Kutarere (435 SH 2, Kutarere)","203 State Highway 2, Kutarere",-38.046701321795,177.14580329332,BOP00_8A,,0,,Pacific/Auckland,,,0,
20002112,2112,,Moody Place - Fronting No. 7 (Opotiki),"107 St John Street, Opotiki",-38.005051607399,177.28601436612,BOP00_9A,,0,,Pacific/Auckland,,,0,
20002113,2113,,Bridge St Cafe - Opotiki,"79 Bridge Street, Opotiki",-38.012191659796,177.28378256812,BOP00_9A,,0,,Pacific/Auckland,,,0,
20002114,2114,,Valley Road - Fronting No. 39,"38 Valley Road, Kawerau",-38.086106752992,176.68676170321,BOP00_4C,,0,,Pacific/Auckland,,,0,
20002115,2115,,Murupara,"35 Pine Drive, Murupara",-38.4573255327198,176.704980838653,BOP01_4,,0,,Pacific/Auckland,,,0,
20002116,2116,,Minginui,"16 Matai Street, Minginui",-38.6393150613996,176.732094797622,BOP01_5,,0,,Pacific/Auckland,,,0,
20002117,2117,,Kaingaroa,"18 Daniel Street, Kaingaroa Forest",-38.4090329543472,176.560588957641,BOP01_3,,0,,Pacific/Auckland,,,0,
20002118,2118,,College Road - Fronting No. 10,"12 College Road, Edgecumbe",-37.9756092,176.8276032,BOP00_5A,,0,,Pacific/Auckland,,,0,
20002119,2119,,Pukehina Beach - Fire Station,"14 Pukehina Parade, Pukehina",-37.789296307835,176.52762021327,BOP00_3A,,0,,Pacific/Auckland,,,0,
20002120,2120,,Paengaroa,"5 Old Coach Road, Paengaroa",-37.822198721513,176.41171504729,BOP00_3A,,0,,Pacific/Auckland,,,0,
20002121,2121,,Kawerau Information Centre,"2 Ranfurly Court, Kawerau",-38.0864462776846,176.700328819608,BOP00_4C,,0,,Pacific/Auckland,,,0,
20002122,2122,,Morrison Road - Fronting No. 3,"3 Morrison Road, Taneatua",-38.064254264374,177.00396717487,BOP00_6A,,0,,Pacific/Auckland,,,0,
20002123,2123,,Tuhoe Street - Fronting No. 50,"56 Tuhoe Street, Taneatua",-38.065346441563,177.0036350841,BOP00_6A,,0,,Pacific/Auckland,,,0,
20002124,2124,,Waimana - Westbound,"260 Waimana Road, Waimana",-38.1433667948829,177.076315641733,BOP00_7A,,0,,Pacific/Auckland,,,0,
20002125,2125,,Waimana - Eastbound,"267 Waimana Road, Waimana",-38.1433914430911,177.07696612209,BOP00_7A,,0,,Pacific/Auckland,,,0,
20002126,2126,,Tirohanga - Fronting No. 745B State Highway 35,"745B State Highway 35, Tirohanga",-37.98884181796,177.35235004914,BOP02_1,,0,,Pacific/Auckland,,,0,
20002127,2127,,Opape,"1372 State Highway 35, Toatoa",-37.98117186267,177.41951144775,BOP02_2,,0,,Pacific/Auckland,,,0,
20002128,2128,,Torere,"2222 State Highway 35, Torere",-37.950415934539,177.48875972195,BOP02_3,,0,,Pacific/Auckland,,,0,
20002129,2129,,Hawai,"2792 State Highway 35, Hawai",-37.922529330294,177.52645162803,BOP02_4,,0,,Pacific/Auckland,,,0,
20002130,2130,,Maraenui,"3688A State Highway 35, Hawai",-37.874175629743,177.58440266669,BOP02_5,,0,,Pacific/Auckland,,,0,
20002131,2131,,Omaio,"5456 State Highway 35, Omaio",-37.813493754679,177.63295182394,BOP02_7,,0,,Pacific/Auckland,,,0,
20002132,2132,,Whitianga,"4754 State Highway 35, Omaio",-37.839941009973,177.59473142328,BOP02_6,,0,,Pacific/Auckland,,,0,
20002133,2133,,Te Kaha Holiday Park,"6925 State Highway 35, Te Kaha",-37.732012558668,177.68915494708,BOP02_9,,0,,Pacific/Auckland,,,0,
20002134,2134,,Whanarua Bay,"8523 State Highway 35, Waihau Bay",-37.678357823295,177.79613579216,BOP02_11,,0,,Pacific/Auckland,,,0,
20002135,2135,,Papatea,9132 State Highway 35,-37.661830063578,177.84924199345,BOP02_12,,0,,Pacific/Auckland,,,0,
20002136,2136,,Raukokore,8663 State Highway 35,-37.639797647788,177.87875679029,BOP02_13,,0,,Pacific/Auckland,,,0,
20002137,2137,,Waihau Bay,10826 State Highway 35,-37.618806478611,177.91167272093,BOP02_14,,0,,Pacific/Auckland,,,0,
20002138,2138,,Oruaiti Beach,10826 State Highway 35,-37.617891156827,177.94969837434,BOP02_15,,0,,Pacific/Auckland,,,0,
20002139,2139,,Whangaparaoa,"11530A State Highway 35, Cape Runaway",-37.575867049759,177.99796693848,BOP02_16,,0,,Pacific/Auckland,,,0,
20002140,2140,,Te Kaha Schoolhouse Bay,"6994 State Highway 35, Te Kaha",-37.72884450458,177.69371527883,BOP02_10,,0,,Pacific/Auckland,,,0,
