stop_id,stop_code,platform_code,stop_name,stop_desc,stop_lat,stop_lon,zone_id,stop_url,location_type,parent_station,stop_timezone,position,direction,wheelchair_boarding,tts_stop_name
20001001,1001,,Adams Avenue - Hot Pools,"12 Adams Avenue, Mount Maunganui",-37.632512957,176.176281425,BOP00_1A,,0,,Pacific/Auckland,,,0,
20001002,1002,,Arawata Avenue - Owens Park,"27 Arawata Avenue, Welcome Bay, Tauranga",-37.725239911,176.197798236,BOP00_1A,,0,,Pacific/Auckland,,,0,
20001005,1005,,Argyll Road - Carlisle Street,"68 Argyll Road, Greerton, Tauranga",-37.732772077,176.130735213,BOP00_1A,,0,,Pacific/Auckland,,,0,
20001006,1006,,Argyll Road - Lumsden Street,"100 Argyll Road, Greerton, Tauranga",-37.731467018123,176.12820730481,BOP00_1A,,0,,Pacific/Auckland,,,0,
20001008,1008,,Beaumaris Boulevard - Scotney Mews,"17 Beaumaris Boulevard, Bethlehem, Tauranga",-37.699914384,176.11540954,BOP00_1A,,0,,Pacific/Auckland,,,0,
20001009,1009,,Beaumaris Boulevard - Harlech Glen,"33 Beaumaris Boulevard, Bethlehem, Tauranga",-37.698492288,176.116584255,BOP00_1A,,0,,Pacific/Auckland,,,0,
20001010,1010,,Beaumaris Park,"65 Beaumaris Boulevard, Bethlehem, Tauranga",-37.696956822,176.117929012,BOP00_1A,,0,,Pacific/Auckland,,,0,
20001011,1011,,Beaumaris Boulevard - Kinloch Drive,"123 Beaumaris Boulevard, Bethlehem, Tauranga",-37.69674,176.12135,BOP00_1A,,0,,Pacific/Auckland,,,0,
20001012,1012,,Beaumaris Boulevard - Caernarvon Rise,"28 Beaumaris Boulevard, Bethlehem, Tauranga",-37.700134087,176.11541042,BOP00_1A,,0,,Pacific/Auckland,,,0,
20001013,1013,,Brookfield - Bellevue Road (Stand A),"89 Bellevue Road, Brookfield, Tauranga",-37.689638405,176.134504974,BOP00_1A,,0,,Pacific/Auckland,,,0,
20001014,1014,,Brookfield - Bellevue Road (Stand B),"94 Bellevue Road, Brookfield, Tauranga",-37.689585633,176.134127158,BOP00_1A,,0,,Pacific/Auckland,,,0,
20001015,1015,,Bellevue Road - Regent Street,"138 Bellevue Road, Brookfield, Tauranga",-37.687450565,176.131225477,BOP00_1A,,0,,Pacific/Auckland,,,0,
20001016,1016,,Bellevue Road - Upland Street,"178A Bellevue Road, Bellevue, Tauranga",-37.685482022,176.128501512,BOP00_1A,,0,,Pacific/Auckland,,,0,
20001017,1017,,Bellevue Road - Windsor Road,"167 Bellevue Road, Bellevue, Tauranga",-37.685407444,176.128579291,BOP00_1A,,0,,Pacific/Auckland,,,0,
20001018,1018,,Bellevue Road - Brookfield Terrace,"135 Bellevue Road, Brookfield, Tauranga",-37.687375374,176.131304567,BOP00_1A,,0,,Pacific/Auckland,,,0,
20001019,1019,,Bethlehem Heights - Kildonan Place,"88 Bethlehem Heights, Bethlehem, Tauranga",-37.698748839,176.120424787,BOP00_1A,,0,,Pacific/Auckland,,,0,
20001020,1020,,Bethlehem Heights - Sissinghurst Court,"52 Bethlehem Heights, Bethlehem, Tauranga",-37.69965716,176.118632392,BOP00_1A,,0,,Pacific/Auckland,,,0,
20001021,1021,,Bethlehem Heights - Richmond Heights,"22 Bethlehem Heights, Bethlehem, Tauranga",-37.700295654,176.117118139,BOP00_1A,,0,,Pacific/Auckland,,,0,
20001022,1022,,Bureta Shopping Centre,"1/33 Bureta Road, Otumoetai, Tauranga",-37.668409623,176.15318157,BOP00_1A,,0,,Pacific/Auckland,,,0,
20001023,1023,,Bureta Shopping Centre,"1/35 Bureta Road, Otumoetai, Tauranga",-37.668973685,176.153140987,BOP00_1A,,0,,Pacific/Auckland,,,0,
20001024,1024,,Cambridge Road,"127 Cambridge Road, Bethlehem, Tauranga",-37.701752958,176.129813934,BOP00_1A,,0,,Pacific/Auckland,,,0,
20001026,1026,,Cambridge Road - Fronting R286,"286 Cambridge Road, Bethlehem, Tauranga",-37.710426535549885,176.12042381002954,BOP00_1A,,0,,Pacific/Auckland,,,0,
20001027,1027,,Cambridge Park,"256 Cambridge Road, Bethlehem, Tauranga",-37.706172668,176.122795856,BOP00_1A,,0,,Pacific/Auckland,,,0,
20001028,1028,,Cambridge Road - Westminster Drive,"104 Cambridge Road, Bethlehem, Tauranga",-37.70087494,176.130715825,BOP00_1A,,0,,Pacific/Auckland,,,0,
20001029,1029,,Cambridge Road - Chester Street,"2A Chester Street, Judea, Tauranga",-37.697840885,176.133478407,BOP00_1A,,0,,Pacific/Auckland,,,0,
20001031,1031,,Cambridge Road - Te Reti Views,"39 Cambridge Road, Judea, Tauranga",-37.698110376,176.13299689,BOP00_1A,,0,,Pacific/Auckland,,,0,
20001032,1032,,Cambridge Road - Opp. Bethlehem Views,"179 Cambridge Road, Bethlehem, Tauranga",-37.703695469,176.127530446,BOP00_1A,,0,,Pacific/Auckland,,,0,
20001033,1033,,Cameron Road - Second Avenue,"290 Cameron Road, Tauranga",-37.689076181,176.165234955,BOP00_1A,,0,,Pacific/Auckland,,,0,
20001034,1034,,Cameron Road - Fourth Avenue - South,"342 Cameron Road, Tauranga",-37.690661477,176.164675561,BOP00_1A,,0,,Pacific/Auckland,,,0,
20001035,1035,,Cameron Road - Fifth Avenue,"385 Cameron Road, Tauranga",-37.69214726,176.163684654,BOP00_1A,,0,,Pacific/Auckland,,,0,
20001036,1036,,Cameron Road - Eighth Avenue -  South,"408 Cameron Road, Tauranga",-37.694436395,176.162112317,BOP00_1A,,0,,Pacific/Auckland,,,0,
20001037,1037,,Cameron Road - Pak 'n Save,"483 Cameron Road, Tauranga",-37.6965898430692,176.160567034485,BOP00_1A,,0,,Pacific/Auckland,,,0,
20001039,1039,,Cameron Road - Tauranga Boys' College,"664 Cameron Road, Tauranga South, Tauranga",-37.702026976,176.155853713,BOP00_1A,,0,,Pacific/Auckland,,,0,
20001040,1040,,Cameron Road - Sixteenth Avenue - South,"748 Cameron Road, Tauranga South, Tauranga",-37.704794888,176.153094761,BOP00_1A,,0,,Pacific/Auckland,,,0,
20001041,1041,,Opposite Tauranga Hospital,"2/850 Cameron Road, Tauranga South, Tauranga",-37.708357282,176.149141753,BOP00_1A,,0,,Pacific/Auckland,,,0,
20001042,1042,,Cameron Road - Tauranga Girls' College,"929B Cameron Road, Gate Pa, Tauranga",-37.712333576,176.143951043,BOP00_1A,,0,,Pacific/Auckland,,,0,
20001043,1043,,Cameron Road - Gate Pa School,"907 Cameron Road, Gate Pa, Tauranga",-37.7112143599002,176.145280084074,BOP00_1A,,0,,Pacific/Auckland,,,0,
20001044,1044,,Gate Pa Shopping Centre,"1009 Cameron Road, Gate Pa, Tauranga",-37.714421613,176.141266668,BOP00_1A,,0,,Pacific/Auckland,,,0,
20001045,1045,,Gate Pa Domain,"1100 Cameron Road, Gate Pa, Tauranga",-37.716052218,176.139069292,BOP00_1A,,0,,Pacific/Auckland,,,0,
20001046,1046,,Cameron Road - Church Street,"1126 Cameron Road, Gate Pa, Tauranga",-37.717670561,176.137950399,BOP00_1A,,0,,Pacific/Auckland,,,0,
20001047,1047,,Cameron Road - Sheppard Street,"1222 Cameron Road, Gate Pa, Tauranga",-37.722026229,176.135683852,BOP00_1A,,0,,Pacific/Auckland,,,0,
20001048,1048,,Cameron Road - Greerton Village,"1272 Cameron Road, Gate Pa, Tauranga",-37.725048978,176.133708382,BOP00_1A,,0,,Pacific/Auckland,,,0,
20001049,1049,,Cameron Road - Spring Street,"171 Cameron Road, Tauranga",-37.685075633,176.1656353,BOP00_1A,,0,,Pacific/Auckland,,,0,
20001050,1050,,Cameron Road - First Avenue,"265 Cameron Road, Tauranga",-37.688048418,176.165132536,BOP00_1A,,0,,Pacific/Auckland,,,0,
20001051,1051,,Cameron Road - Fourth Avenue North,"349 Cameron Road, Tauranga",-37.690967258,176.16416694,BOP00_1A,,0,,Pacific/Auckland,,,0,
20001052,1052,,Cameron Road - Sixth Avenue,"389 Cameron Road, Tauranga",-37.692838106,176.162885237,BOP00_1A,,0,,Pacific/Auckland,,,0,
20001053,1053,,Cameron Road - Eighth Avenue - North,"409 Cameron Road, Tauranga",-37.694380484,176.161820456,BOP00_1A,,0,,Pacific/Auckland,,,0,
20001054,1054,,Cameron Road - Opposite Pak 'n Save,"483 Cameron Road, Tauranga",-37.6964029613206,176.160435553865,BOP00_1A,,0,,Pacific/Auckland,,,0,
20001055,1055,,Cameron Road - Eleventh Avenue,"531 Cameron Road, Tauranga",-37.6977775029987,176.159498437504,BOP00_1A,,0,,Pacific/Auckland,,,0,
20001056,1056,,Cameron Road - Twelfth Avenue,"607 Cameron Road, Tauranga South, Tauranga",-37.7000230728241,176.157501344451,BOP00_1A,,0,,Pacific/Auckland,,,0,
20001057,1057,,Cameron Road - Fourteenth Avenue,"697 Cameron Road, Tauranga South, Tauranga",-37.70188442,176.155524526,BOP00_1A,,0,,Pacific/Auckland,,,0,
20001058,1058,,Cameron Road - Sixteenth Avenue - North,"151 Sixteenth Avenue, Tauranga South, Tauranga",-37.704824058543,176.15269548425,BOP00_1A,,0,,Pacific/Auckland,,,0,
20001059,1059,,Tauranga Hospital,"2/850 Cameron Road, Tauranga South, Tauranga",-37.7083447992469,176.148907705198,BOP00_1A,,0,,Pacific/Auckland,,,0,
20001060,1060,,Cameron Road - Twentyfirst Avenue,"895 Cameron Road, Gate Pa, Tauranga",-37.7107040371255,176.145816112252,BOP00_1A,,0,,Pacific/Auckland,,,0,
20001061,1061,,Cameron Road - Twentythird Avenue,"929B Cameron Road, Gate Pa, Tauranga",-37.712129568,176.143815902,BOP00_1A,,0,,Pacific/Auckland,,,0,
20001062,1062,,Opposite Gate Pa Shopping Centre,"1007 Cameron Road, Gate Pa, Tauranga",-37.7142167135114,176.141324776161,BOP00_1A,,0,,Pacific/Auckland,,,0,
20001063,1063,,Cameron Road -  Opposite Church Street,"1131 Cameron Road, Gate Pa, Tauranga",-37.717666218,176.13777524,BOP00_1A,,0,,Pacific/Auckland,,,0,
20001064,1064,,Cameron Road - Kent Street,"1209 Cameron Road, Gate Pa, Tauranga",-37.721774148,176.135617567,BOP00_1A,,0,,Pacific/Auckland,,,0,
20001065,1065,,Greerton Hall,"1247 Cameron Road, Gate Pa, Tauranga",-37.724694893,176.133670989,BOP00_1A,,0,,Pacific/Auckland,,,0,
20001066,1066,,Cameron Road - Maleme Street,"1480 Cameron Road, Greerton, Tauranga",-37.733652872,176.124590275,BOP00_1A,,0,,Pacific/Auckland,,,0,
20001067,1067,,Chadwick Road - Mansels Road,"101 Chadwick Road, Greerton, Tauranga",-37.72895267948467,176.1380176086717,BOP00_1A,,0,,Pacific/Auckland,,,0,
20001068,1068,,Chadwick Rd - Harmens Way,"82 Chadwick Rd, Greerton, Tauranga",-37.729066122,176.13792838,BOP00_1A,,0,,Pacific/Auckland,,,0,
20001069,1069,,Castlewold Drive - Hidcote Place,"5 Castlewold Drive, Bethlehem, Tauranga",-37.710336635,176.117094117,BOP00_1A,,0,,Pacific/Auckland,,,0,
20001070,1070,,Castlewold Drive - Belvedere Reserve,"28 Castlewold Drive, Bethlehem, Tauranga",-37.70937784,176.117689217,BOP00_1A,,0,,Pacific/Auckland,,,0,
20001071,1071,A,Greerton - Chadwick Road (Stand A),"179 Chadwick Road, Greerton, Tauranga",-37.727065035,176.134536853,BOP00_1A,,0,,Pacific/Auckland,,,0,
20001072,1072,B,Greerton - Chadwick Road (Stand B),"184 Chadwick Road, Greerton, Tauranga",-37.7267864647234,176.133792664,BOP00_1A,,0,,Pacific/Auckland,,,0,
20001074,1074,,Cheyne Road - Tawai Dell,"185 Cheyne Road, Pyes Pa, Tauranga",-37.739218187,176.133587349,BOP00_1A,,0,,Pacific/Auckland,,,0,
20001078,1078,,Cheyne Road - Annandale Drive,"45 Cheyne Road, Pyes Pa, Tauranga",-37.739234163,176.126715821,BOP00_1A,,0,,Pacific/Auckland,,,0,
20001079,1079,,Cheyne Road - Opposite Taramea Rise,"65 Cheyne Road, Pyes Pa, Tauranga",-37.739112491,176.128626859,BOP00_1A,,0,,Pacific/Auckland,,,0,
20001080,1080,,Cheyne Road - Tawhiri View,"103 Cheyne Road, Pyes Pa, Tauranga",-37.737891291,176.130807956,BOP00_1A,,0,,Pacific/Auckland,,,0,
20001083,1083,,Clarke Street - Matthew Street,"39A Clarke Street, Gate Pa, Tauranga",-37.708627068,176.144942166,BOP00_1A,,0,,Pacific/Auckland,,,0,
20001085,1085,,Clarke Street - Seventeenth Avenue,"150 Seventeenth Avenue, Tauranga South, Tauranga",-37.705393593,176.148704324,BOP00_1A,,0,,Pacific/Auckland,,,0,
20001086,1086,,Clarke Street - St Johns,"150 Seventeenth Avenue, Tauranga South, Tauranga",-37.705341372,176.14887825,BOP00_1A,,0,,Pacific/Auckland,,,0,
20001087,1087,,Coopers Road - Opposite Leonard Place,"104 Coopers Road, Gate Pa, Tauranga",-37.71551490273094,176.13355910963833,BOP00_1A,,0,,Pacific/Auckland,,,0,
20001089,1089,,Coopers Road - Tuthill Street,"21 Coopers Road, Gate Pa, Tauranga",-37.718634816,176.131859449,BOP00_1A,,0,,Pacific/Auckland,,,0,
20001090,1090,,Coopers Road - Vanda Place,"69 Coopers Road, Gate Pa, Tauranga",-37.716842182,176.132784078,BOP00_1A,,0,,Pacific/Auckland,,,0,
20001091,1091,,Coopers Road - Leonard Place,"83 Coopers Road, Gate Pa, Tauranga",-37.715487726,176.133472831,BOP00_1A,,0,,Pacific/Auckland,,,0,
20001093,1093,,Cook Street - Opposite Faulkner Street,"31 Cook Street, Gate Pa, Tauranga",-37.709469815,176.142002366,BOP00_1A,,0,,Pacific/Auckland,,,0,
20001094,1094,,Cook Street - Opposite Ward Street,"1 Cook Street, Gate Pa, Tauranga",-37.711003231,176.140517836,BOP00_1A,,0,,Pacific/Auckland,,,0,
20001095,1095,,Cook Street - Ward Street,"2 Ward Street, Gate Pa, Tauranga",-37.711134143,176.14033914,BOP00_1A,,0,,Pacific/Auckland,,,0,
20001096,1096,,Cook Street - Faulkner Street,"46 Cook Street, Gate Pa, Tauranga",-37.709239621,176.142184446,BOP00_1A,,0,,Pacific/Auckland,,,0,
20001097,1097,,Grenada Street - Opposite Bay Radiology,"3 Grenada Street, Mount Maunganui",-37.674645321,176.228645011,BOP00_1A,,0,,Pacific/Auckland,,,0,
20001100,1100,,Domain Rd - Opposite Supermarket,"29 Domain Road, Papamoa Beach, Papamoa",-37.701833206,176.284856201,BOP00_1A,,0,,Pacific/Auckland,,,0,
20001101,1101,,Devonport Road - Seventh Avenue,"281 Devonport Road, Tauranga",-37.695218672,176.164993478,BOP00_1A,,0,,Pacific/Auckland,,,0,
20001102,1102,,Devonport Road - Opposite Tenth Avenue,"330 Devonport Road, Tauranga",-37.6976125066495,176.163459514499,BOP00_1A,,0,,Pacific/Auckland,,,0,
20001104,1104,,Devonport Road - Tenth Avenue,"317 Devonport Road, Tauranga",-37.697577487,176.163378278,BOP00_1A,,0,,Pacific/Auckland,,,0,
20001105,1105,,Devonport Road - Second Avenue,"184 Devonport Road, Tauranga",-37.690021148,176.16843106,BOP00_1A,,0,,Pacific/Auckland,,,0,
20001106,1106,,Devonport Road - Memorial Park,"281 Devonport Road, Tauranga",-37.695162256,176.165169072,BOP00_1A,,0,,Pacific/Auckland,,,0,
20001107,1107,,Maungatapu Road - Vine Avenue,"207 Maungatapu Road, Maungatapu, Tauranga",-37.720115452,176.175407699,BOP00_1A,,0,,Pacific/Auckland,,,0,
20001108,1108,,Devonport Road - Third Avenue,"1 Third Avenue, Tauranga",-37.69038226,176.168142742,BOP00_1A,,0,,Pacific/Auckland,,,0,
20001112,1112,,Dickson Road - Douglas Place,"105 Dickson Road, Papamoa Beach, Papamoa",-37.7024463309065,176.295455559419,BOP00_1A,,0,,Pacific/Auckland,,,0,
20001113,1113,,Dickson Road - Fronting Number 140,"138 Dickson Road, Papamoa Beach, Papamoa",-37.7035686910342,176.298446709388,BOP00_1A,,0,,Pacific/Auckland,,,0,
20001114,1114,,Dickson Road - Fronting Number 137,"137 Dickson Road, Papamoa Beach, Papamoa",-37.70351644765786,176.29860098258519,BOP00_1A,,0,,Pacific/Auckland,,,0,
20001115,1115,,Dickson Road - Opposite Longview Drive,"167 Dickson Road, Papamoa Beach, Papamoa",-37.704595918,176.301893134,BOP00_1A,,0,,Pacific/Auckland,,,0,
20001116,1116,,Dickson Road - Fronting Number 195,"195 Dickson Road, Papamoa Beach, Papamoa",-37.705448522,176.304483283,BOP00_1A,,0,,Pacific/Auckland,,,0,
20001117,1117,,Dickson Road - Longview Drive,"181 Dickson Road, Papamoa Beach, Papamoa",-37.7051116,176.3033502,BOP00_1A,,0,,Pacific/Auckland,,,0,
20001118,1118,,Dickson Road - Grant Place,"227 Dickson Road, Papamoa Beach, Papamoa",-37.70640807,176.307139644,BOP00_1A,,0,,Pacific/Auckland,,,0,
20001119,1119,,Dickson Road - Dalton Drive,"242 Dickson Road, Papamoa Beach, Papamoa",-37.70679361,176.308124736,BOP00_1A,,0,,Pacific/Auckland,,,0,
20001120,1120,,Dickson Road - McCallum Place,"261 Dickson Road, Papamoa Beach, Papamoa",-37.7073300575345,176.310206804713,BOP00_1A,,0,,Pacific/Auckland,,,0,
20001121,1121,,Dickson Road - Opposite Butterworth Crescent,"285 Dickson Road, Papamoa Beach, Papamoa",-37.708100994,176.312333919,BOP00_1A,,0,,Pacific/Auckland,,,0,
20001122,1122,,Dickson Road - Simpson Reserve,"308 Dickson Road, Papamoa Beach, Papamoa",-37.708864615,176.31370885,BOP00_1A,,0,,Pacific/Auckland,,,0,
20001123,1123,,Dickson Road - Butterworth Crescent,"288 Dickson Road, Papamoa Beach, Papamoa",-37.708075331,176.311936786,BOP00_1A,,0,,Pacific/Auckland,,,0,
20001124,1124,,Dickson Road - Alexander Place,"156A Dickson Road, Papamoa Beach, Papamoa",-37.704078979,176.299978359,BOP00_1A,,0,,Pacific/Auckland,,,0,
20001125,1125,,Dickson Road - Opposite Douglas Place,"104 Dickson Road, Papamoa Beach, Papamoa",-37.702740740948606,176.29580242743856,BOP00_1A,,0,,Pacific/Auckland,,,0,
20001126,1126,,Dickson Road - Papamoa Primary School,"312 Dickson Road, Papamoa Beach, Papamoa",-37.70933775792432,176.31414325294196,BOP00_1A,,0,,Pacific/Auckland,,,0,
20001127,1127,,Dive Crescent - The Cargo Shed,"32 Dive Crescent, Tauranga",-37.6794826,176.170856887,BOP00_1A,,0,,Pacific/Auckland,,,0,
20001128,1128,,Dive Crescent - Opposite The Cargo Shed,"36 Dive Crescent, Tauranga",-37.679285057,176.170693561,BOP00_1A,,0,,Pacific/Auckland,,,0,
20001129,1129,,Domain Road - Medical Centre,"61B Domain Road, Papamoa Beach, Papamoa",-37.704820966,176.284897945,BOP00_1A,,0,,Pacific/Auckland,,,0,
20001130,1130,,Domain Road - Opposite Pacific Cove Drive,"73 Domain Road, Papamoa Beach, Papamoa",-37.705960692,176.284873276,BOP00_1A,,0,,Pacific/Auckland,,,0,
20001131,1131,,Domain Road - Gravatt Road,"30A Domain Road, Papamoa Beach, Papamoa",-37.701434102,176.284705548,BOP00_1A,,0,,Pacific/Auckland,,,0,
20001132,1132,,Doncaster Drive - Domain Road,"3 Doncaster Drive, Papamoa Beach, Papamoa",-37.707000257,176.285466881,BOP00_1A,,0,,Pacific/Auckland,,,0,
20001133,1133,,Doncaster Drive - Longstead Avenue,"10A Doncaster Drive, Papamoa Beach, Papamoa",-37.707110556,176.286306052,BOP00_1A,,0,,Pacific/Auckland,,,0,
20001136,1136,,Eleventh Avenue - Memorial Park,"34 Eleventh Avenue, Tauranga",-37.700346357,176.163871685,BOP00_1A,,0,,Pacific/Auckland,,,0,
20001137,1137,,Eleventh Avenue - Opposite Memorial Park,"38 Eleventh Avenue, Tauranga",-37.700287967,176.163497868,BOP00_1A,,0,,Pacific/Auckland,,,0,
20001138,1138,,Eleventh Avenue - Christopher Street,"177 Eleventh Avenue, Tauranga",-37.69774331001045,176.15776545516457,BOP00_1A,,0,,Pacific/Auckland,,,0,
20001140,1140,,Esmeralda Street - Arawata Avenue,"33 Arawata Avenue, Welcome Bay, Tauranga",-37.724703534,176.197117897,BOP00_1A,,0,,Pacific/Auckland,,,0,
20001141,1141,,Esmeralda Street - Welcome Bay Road,"6 Esmeralda Street, Welcome Bay, Tauranga",-37.725057685,176.194256657,BOP00_1A,,0,,Pacific/Auckland,,,0,
20001144,1144,,Evans Road - Gravatt Road,"137 Evans Road, Papamoa Beach, Papamoa",-37.694914181,176.259334487,BOP00_1A,,0,,Pacific/Auckland,,,0,
20001146,1146,,Evans Road - Gloucester Road,"130 Evans Road, Papamoa Beach, Papamoa",-37.694403592,176.259190328,BOP00_1A,,0,,Pacific/Auckland,,,0,
20001147,1147,,Tahatai Coast School,"110 Evans Road, Papamoa Beach, Papamoa",-37.6927484968157,176.259276962896,BOP00_1A,,0,,Pacific/Auckland,,,0,
20001149,1149,A1,Bayfair - Farm Street (Stand A1),"59 Farm Street, Mount Maunganui",-37.6737316507882,176.224943046079,BOP00_1A,,0,,Pacific/Auckland,,,0,
20001150,1150,,Fifteenth Avenue - Grace Road - East,"89 Fifteenth Avenue, Tauranga South, Tauranga",-37.708119117,176.161102698,BOP00_1A,,0,,Pacific/Auckland,,,0,
20001151,1151,,Fifteenth Avenue - Mayfair Street,"31 Fifteenth Avenue, Tauranga South, Tauranga",-37.71051399269907,176.1649279188826,BOP00_1A,,0,,Pacific/Auckland,,,0,
20001152,1152,,Fifteenth Avenue - Grace Road - West,"86 Fifteenth Avenue, Tauranga South, Tauranga",-37.708229845,176.160988363,BOP00_1A,,0,,Pacific/Auckland,,,0,
20001153,1153,,Fifteenth Avenue - Burrows Street,"30 Fifteenth Avenue, Tauranga South, Tauranga",-37.70982452886781,176.16355529364796,BOP00_1A,,0,,Pacific/Auckland,,,0,
20001154,1154,,Fraser Cove,"261A Fraser Street, Tauranga South, Tauranga",-37.713800179,176.151613754,BOP00_1A,,0,,Pacific/Auckland,,,0,
20001155,1155,,Fraser Street - Oxford Street,"368 Fraser Street, Parkvale, Tauranga",-37.718790749,176.146540268,BOP00_1A,,0,,Pacific/Auckland,,,0,
20001156,1156,,Fraser Street -  Esk Street,"454 Fraser Street, Parkvale, Tauranga",-37.723161256,176.144563736,BOP00_1A,,0,,Pacific/Auckland,,,0,
20001157,1157,,Fraser Street - Yatton Park,"515 Fraser Street, Parkvale, Tauranga",-37.726429273,176.142612886,BOP00_1A,,0,,Pacific/Auckland,,,0,
20001159,1159,,Opposite Fraser Cove,"261A Fraser Street, Tauranga South, Tauranga",-37.714150565,176.151573319,BOP00_1A,,0,,Pacific/Auckland,,,0,
20001161,1161,,Fraser Street - Kotare Crescent,"36 Fraser Street, Tauranga South, Tauranga",-37.702004861,176.164030572,BOP00_1A,,0,,Pacific/Auckland,,,0,
20001162,1162,,Fraser Street - Fourteenth Avenue - South,"110 Fraser Street, Tauranga South, Tauranga",-37.706041934,176.159859359,BOP00_1A,,0,,Pacific/Auckland,,,0,
20001163,1163,,Fraser Street - Sixteenth Avenue,"70 Sixteenth Avenue, Tauranga South, Tauranga",-37.708434801,176.157395638,BOP00_1A,,0,,Pacific/Auckland,,,0,
20001166,1166,,Fraser Street - Tauranga Intermediate,"218 Fraser Street, Tauranga South, Tauranga",-37.712317666,176.153305664,BOP00_1A,,0,,Pacific/Auckland,,,0,
20001167,1167,,Fraser Street - Lloyd Street,"314 Fraser Street, Parkvale, Tauranga",-37.716194801,176.149359185,BOP00_1A,,0,,Pacific/Auckland,,,0,
20001168,1168,,Fraser Street - Hampton Terrace,"404 Fraser Street, Parkvale, Tauranga",-37.721164899,176.145484527,BOP00_1A,,0,,Pacific/Auckland,,,0,
20001169,1169,,Fraser Street - Courtney Road,"365 Fraser Street, Parkvale, Tauranga",-37.718863529,176.146291787,BOP00_1A,,0,,Pacific/Auckland,,,0,
20001170,1170,,Fraser Street - Opposite Waimapu Street,"559 Fraser Street, Greerton, Tauranga",-37.7287750661371,176.140585057724,BOP00_1A,,0,,Pacific/Auckland,,,0,
20001171,1171,,Fraser Street - Yatton Street,"517 Fraser Street, Parkvale, Tauranga",-37.726405423,176.142420773,BOP00_1A,,0,,Pacific/Auckland,,,0,
20001172,1172,,Fraser Street - Opposite Esk Street,"451 Fraser Street, Parkvale, Tauranga",-37.72307442,176.144464145,BOP00_1A,,0,,Pacific/Auckland,,,0,
20001173,1173,,Gravatt Road - Santa Barbara Drive,"173 Gravatt Road, Papamoa Beach, Papamoa",-37.69832382,176.268430371,BOP00_1A,,0,,Pacific/Auckland,,,0,
20001174,1174,,Fraser Street - Page Street,"321 Fraser Street, Parkvale, Tauranga",-37.716084941,176.149324235,BOP00_1A,,0,,Pacific/Auckland,,,0,
20001175,1175,,Fraser Street - Eighteenth Avenue,"193 Fraser Street, Tauranga South, Tauranga",-37.710831743,176.154667882,BOP00_1A,,0,,Pacific/Auckland,,,0,
20001176,1176,,Fraser Street - Seventeenth Avenue,"167 Fraser Street, Tauranga South, Tauranga",-37.709269863,176.156332299,BOP00_1A,,0,,Pacific/Auckland,,,0,
20001177,1177,,Fraser Street - Fourteenth Avenue - North,"105 Fraser Street, Tauranga South, Tauranga",-37.705891177,176.159798393,BOP00_1A,,0,,Pacific/Auckland,,,0,
20001178,1178,,Fraser Street - Thirteenth Avenue - North,"71 Fraser Street, Tauranga South, Tauranga",-37.70392463,176.16183677,BOP00_1A,,0,,Pacific/Auckland,,,0,
20001179,1179,,Fraser Street - MacMillan Street,"37 Fraser Street, Tauranga South, Tauranga",-37.702078996,176.163792349,BOP00_1A,,0,,Pacific/Auckland,,,0,
20001186,1186,,Grange Road - Opposite Hillcrest Road,"200 Grange Road, Otumoetai, Tauranga",-37.678912796,176.142145249,BOP00_1A,,0,,Pacific/Auckland,,,0,
20001187,1187,,Grange Road - Otumoetai Rd,"262 Grange Road, Otumoetai, Tauranga",-37.680828403,176.139089563,BOP00_1A,,0,,Pacific/Auckland,,,0,
20001188,1188,,Grange Road - Stratford Place,"126 Grange Road, Otumoetai, Tauranga",-37.6767797,176.146946582,BOP00_1A,,0,,Pacific/Auckland,,,0,
20001189,1189,,Grange Road - Coach Drive,"141 Grange Road, Otumoetai, Tauranga",-37.678039964,176.145450844,BOP00_1A,,0,,Pacific/Auckland,,,0,
20001190,1190,,Grange Road - Parkvale Road,"261 Grange Road, Otumoetai, Tauranga",-37.680868868,176.137886397,BOP00_1A,,0,,Pacific/Auckland,,,0,
20001191,1191,,Grange Road - Hillcrest Road,"185 Grange Road, Otumoetai, Tauranga",-37.678800442,176.14179356,BOP00_1A,,0,,Pacific/Auckland,,,0,
20001192,1192,,Grange Road - Coach Drive,"141 Grange Road, Otumoetai, Tauranga",-37.678005279,176.14530185,BOP00_1A,,0,,Pacific/Auckland,,,0,
20001193,1193,,Gravatt Road - Crisp Drive,"255 Gravatt Road, Papamoa Beach, Papamoa",-37.696020012,176.263354814,BOP00_1A,,0,,Pacific/Auckland,,,0,
20001194,1194,,Gravatt Road - Opposite Crisp Drive,"268 Gravatt Road, Papamoa Beach, Papamoa",-37.696232273,176.2634575,BOP00_1A,,0,,Pacific/Auckland,,,0,
20001195,1195,,Gravatt Road - Arabian Drive,"293 Gravatt Road, Papamoa Beach, Papamoa",-37.695348132,176.261743748,BOP00_1A,,0,,Pacific/Auckland,,,0,
20001196,1196,,Gravatt Road - Hartford Avenue,"217A Gravatt Road, Papamoa Beach, Papamoa",-37.697304092,176.265797278,BOP00_1A,,0,,Pacific/Auckland,,,0,
20001197,1197,,Gravatt Road - Palm Beach Boulevard,"133 Gravatt Road, Papamoa Beach, Papamoa",-37.699142041,176.270651764,BOP00_1A,,0,,Pacific/Auckland,,,0,
20001198,1198,,Gravatt Road - Cayman Key,"85 Gravatt Road, Papamoa Beach, Papamoa",-37.699171083,176.27442729,BOP00_1A,,0,,Pacific/Auckland,,,0,
20001199,1199,,Clarke Street - Opposite Matthew Street,"37 Clarke Street, Gate Pa, Tauranga",-37.708544174,176.14515486,BOP00_1A,,0,,Pacific/Auckland,,,0,
20001201,1201,,Gravatt Road - Beachwater Drive,"53 Gravatt Road, Papamoa Beach, Papamoa",-37.700461854,176.278292478,BOP00_1A,,0,,Pacific/Auckland,,,0,
20001202,1202,,Gravatt Road - Montego Drive,"56 Gravatt Road, Papamoa Beach, Papamoa",-37.700344518,176.277309043,BOP00_1A,,0,,Pacific/Auckland,,,0,
20001203,1203,,Gravatt Road - Opposite Montego Drive,"104 Gravatt Road, Papamoa Beach, Papamoa",-37.699138103,176.273129827,BOP00_1A,,0,,Pacific/Auckland,,,0,
20001204,1204,,Gravatt Road - Bahamas Key,"164 Gravatt Road, Papamoa Beach, Papamoa",-37.698859212,176.269105902,BOP00_1A,,0,,Pacific/Auckland,,,0,
20001205,1205,,Gravatt Road - Novelle Grove,"216A Gravatt Road, Papamoa Beach, Papamoa",-37.697482594,176.265914797,BOP00_1A,,0,,Pacific/Auckland,,,0,
20001206,1206,,Gravatt Road - Evans Road,"306 Gravatt Road, Papamoa Beach, Papamoa",-37.695301682,176.260165511,BOP00_1A,,0,,Pacific/Auckland,,,0,
20001208,1208,,Grenada Street - Lotus Avenue,"187 Grenada Street, Mount Maunganui",-37.68087943,176.23898958,BOP00_1A,,0,,Pacific/Auckland,,,0,
20001209,1209,,Grenada Street - Ocean Shores Village,"80 Grenada Street, Mount Maunganui",-37.678475,176.235245482,BOP00_1A,,0,,Pacific/Auckland,,,0,
20001210,1210,,Grenada Street - Seaspray Drive,"49 Grenada Street, Mount Maunganui",-37.676854516,176.232665307,BOP00_1A,,0,,Pacific/Auckland,,,0,
20001211,1211,,Grenada Street - Grevillea Place,"180 Grenada Street, Mount Maunganui",-37.680425423,176.237741687,BOP00_1A,,0,,Pacific/Auckland,,,0,
20001212,1212,,Grenada Street - Monowai Street,"50 Grenada Street, Mount Maunganui",-37.6770418370976,176.232653765038,BOP00_1A,,0,,Pacific/Auckland,,,0,
20001213,1213,,Grenada Street - Zambuk Way,"14 Grenada Street, Mount Maunganui",-37.675123969292,176.229190314683,BOP00_1A,,0,,Pacific/Auckland,,,0,
20001214,1214,,Grey Street - Elizabeth Street,"107 Grey Street, Tauranga",-37.6866417679999,176.168092244489,BOP00_1A,,0,,Pacific/Auckland,,,0,
20001216,1216,,Ngatai Road - BP Service Station,"269 Ngatai Road, Otumoetai, Tauranga",-37.665559991,176.14192129,BOP00_1A,,0,,Pacific/Auckland,,,0,
20001217,1217,,Hewletts Road - Jean Batten Drive,"109 Hewletts Road, Mount Maunganui",-37.665790688,176.196131651,BOP00_1A,,0,,Pacific/Auckland,,,0,
20001218,1218,,Hewletts Road,"149 Hewletts Road, Mount Maunganui",-37.665743098,176.188836304,BOP00_1A,,0,,Pacific/Auckland,,,0,
20001221,1221,,Hewletts Road - Aerodrome Road - West,"59 Hewletts Road, Mount Maunganui",-37.66579901,176.201970472,BOP00_1A,,0,,Pacific/Auckland,,,0,
20001222,1222,,Hewletts Road - Waimarie Street,"4 Kereiti Street, Mount Maunganui",-37.66550692630959,176.18939863764484,BOP00_1A,,0,,Pacific/Auckland,,,0,
20001223,1223,,Hewletts Road - Hocking Street,"118 Hewletts Road, Mount Maunganui",-37.665534747,176.195357636,BOP00_1A,,0,,Pacific/Auckland,,,0,
20001224,1224,,Hewletts Road - Aerodrome Road - East,"64 Hewletts Road, Mount Maunganui",-37.665544719,176.201381501,BOP00_1A,,0,,Pacific/Auckland,,,0,
20001225,1225,,Hynds Road - Kent Street,"106 Hynds Road, Gate Pa, Tauranga",-37.720503996,176.133763093,BOP00_1A,,0,,Pacific/Auckland,,,0,
20001226,1226,,Hynds Road - Parkview Rise,"70 Hynds Road, Gate Pa, Tauranga",-37.722723263,176.132355132,BOP00_1A,,0,,Pacific/Auckland,,,0,
20001227,1227,,Hynds Road - Chadwick Road - South,"40B Hynds Road, Gate Pa, Tauranga",-37.724542696,176.131171355,BOP00_1A,,0,,Pacific/Auckland,,,0,
20001228,1228,,Hynds Road - Chadwick Road - North,"37 Hynds Road, Gate Pa, Tauranga",-37.724623144,176.130946371,BOP00_1A,,0,,Pacific/Auckland,,,0,
20001229,1229,,Hynds Road - Sherwin Street,"65 Hynds Road, Gate Pa, Tauranga",-37.722865357,176.132098395,BOP00_1A,,0,,Pacific/Auckland,,,0,
20001230,1230,,Hynds Road - Tuthill Street,"103 Hynds Road, Gate Pa, Tauranga",-37.720332347,176.13365951,BOP00_1A,,0,,Pacific/Auckland,,,0,
20001231,1231,,Lakes Boulevard - Bathurst Crescent,"1 Bathurst Crescent, Pyes Pa, Tauranga",-37.7470958,176.109583382,BOP00_1A,,0,,Pacific/Auckland,,,0,
20001232,1232,,James Cook Drive - Achilles Crescent,"79 James Cook Drive, Welcome Bay, Tauranga",-37.726775868,176.185323902,BOP00_1A,,0,,Pacific/Auckland,,,0,
20001233,1233,,Ohauiti Road - Shops,"162 Ohauiti Road, Hairini, Tauranga",-37.734583821,176.163293975,BOP00_1A,,0,,Pacific/Auckland,,,0,
20001245,1245,,Carmichael Road - Mayfield Lane,"69 Mayfield Lane, Bethlehem, Tauranga",-37.690363554,176.121268041,BOP00_1A,,0,,Pacific/Auckland,,,0,
20001246,1246,,Kings Avenue,"84 Kings Avenue, Matua, Tauranga",-37.669308547,176.117583776,BOP00_1A,,0,,Pacific/Auckland,,,0,
20001247,1247,,Levers Road - Bay Street,"285 Levers Road, Matua, Tauranga",-37.67140902,176.120293004,BOP00_1A,,0,,Pacific/Auckland,,,0,
20001248,1248,,Levers Road - Ranui Street,"2 Ranui Street, Matua, Tauranga",-37.664718827,176.135197161,BOP00_1A,,0,,Pacific/Auckland,,,0,
20001249,1249,,Levers Road - Woods Avenue,"115 Levers Road, Matua, Tauranga",-37.665312594,176.131933983,BOP00_1A,,0,,Pacific/Auckland,,,0,
20001250,1250,,Levers Road - Tilby Drive,"159 Levers Road, Matua, Tauranga",-37.665887768,176.129228185,BOP00_1A,,0,,Pacific/Auckland,,,0,
20001251,1251,,Levers Road - Kings Avenue,"357 Levers Road, Matua, Tauranga",-37.670375091,176.117178073,BOP00_1A,,0,,Pacific/Auckland,,,0,
20001252,1252,,Levers Road Reserve,"30 Levers Road, Matua, Tauranga",-37.664221395,176.137937289,BOP00_1A,,0,,Pacific/Auckland,,,0,
20001253,1253,,Levers Road - Smiths Road,"241 Levers Road, Matua, Tauranga",-37.669805537,176.122388265,BOP00_1A,,0,,Pacific/Auckland,,,0,
20001254,1254,,Levers Road - Matua Road,"199 Levers Road, Matua, Tauranga",-37.667857382,176.125803478,BOP00_1A,,0,,Pacific/Auckland,,,0,
20001255,1255,,Levers Road,"20A Levers Road, Matua, Tauranga",-37.664266512,176.138280854,BOP00_1A,,0,,Pacific/Auckland,,,0,
20001256,1256,,Carmichael Road - Windover Rise,"224 Carmichael Road, Bethlehem, Tauranga",-37.689885369,176.121250303,BOP00_1A,,0,,Pacific/Auckland,,,0,
20001257,1257,,Carmichael Road - Westmorland Rise,"172 Carmichael Road, Bethlehem, Tauranga",-37.68781914,176.118600876,BOP00_1A,,0,,Pacific/Auckland,,,0,
20001258,1258,,Gordon Carmichael Reserve,"174 Carmichael Road, Bethlehem, Tauranga",-37.687693556,176.118667709,BOP00_1A,,0,,Pacific/Auckland,,,0,
20001259,1259,,Carmichael Road - Meadowbank Rise,"144 Carmichael Road, Bethlehem, Tauranga",-37.685990429,176.114375589,BOP00_1A,,0,,Pacific/Auckland,,,0,
20001260,1260,,Carmichael Road - St Michaels Avenue,"145 Carmichael Road, Bethlehem, Tauranga",-37.685897826,176.114592622,BOP00_1A,,0,,Pacific/Auckland,,,0,
20001261,1261,,Carmichael Road - Opposite Bethlehem Country Club,"1 Charles Lever Drive, Bethlehem, Tauranga",-37.687282805,176.111206512,BOP00_1A,,0,,Pacific/Auckland,,,0,
20001263,1263,,Links Avenue - Ascot Road - West,"49 Links Avenue, Mount Maunganui",-37.667670891,176.212827136,BOP00_1A,,0,,Pacific/Auckland,,,0,
20001264,1264,,Links Avenue - Ascot Road,"91 Links Avenue, Mount Maunganui",-37.6700070162934,176.21624739771,BOP00_1A,,0,,Pacific/Auckland,,,0,
20001265,1265,,Links Avenue - Solway Place,"127 Links Avenue, Mount Maunganui",-37.67139597,176.220058414,BOP00_1A,,0,,Pacific/Auckland,,,0,
20001266,1266,,Links Avenue Reserve,"1 Solway Place, Mount Maunganui",-37.671325161,176.219691196,BOP00_1A,,0,,Pacific/Auckland,,,0,
20001267,1267,,Links Avenue -  Opposite Ascot Road - West,"48A Links Avenue, Mount Maunganui",-37.66746281,176.212268329,BOP00_1A,,0,,Pacific/Auckland,,,0,
20001268,1268,,Links Avenue - Golf Road,"4 Links Avenue, Mount Maunganui",-37.664505592,176.209440549,BOP00_1A,,0,,Pacific/Auckland,,,0,
20001269,1269,,Mansells Road - Emmett Street,"22 Mansels Road, Greerton, Tauranga",-37.729155004,176.136415868,BOP00_1A,,0,,Pacific/Auckland,,,0,
20001270,1270,,Mansels Road - Pooles Road,"4 Mansels Road, Greerton, Tauranga",-37.730275707,176.135357221,BOP00_1A,,0,,Pacific/Auckland,,,0,
20001271,1271,,Manuwai Drive,"46 Manuwai Drive, Matua, Tauranga",-37.666839965,176.118169574,BOP00_1A,,0,,Pacific/Auckland,,,0,
20001272,1272,,Carmichael Road - Bethlehem Country Club,"14/112 Carmichael Road, Bethlehem, Tauranga",-37.687378625,176.111357024,BOP00_1A,,0,,Pacific/Auckland,,,0,
20001273,1273,,Maranui Street - Sandhurst Drive,"2 Sandhurst Drive, Papamoa Beach, Papamoa",-37.681528166496,176.2494435484,BOP00_1A,,0,,Pacific/Auckland,,,0,
20001274,1274,,Bethlehem Road - Westmoreland Rise,"1 Westmorland Rise, Bethlehem, Tauranga",-37.691486848,176.109610172,BOP00_1A,,0,,Pacific/Auckland,,,0,
20001275,1275,,Bethlehem Road - Opposite Westmoreland Rise,"49 Bethlehem Road, Bethlehem, Tauranga",-37.691913893,176.109604767,BOP00_1A,,0,,Pacific/Auckland,,,0,
20001276,1276,,Matua Road - Eaton Crescent,"44 Matua Road, Matua, Tauranga",-37.665738697,176.122487834,BOP00_1A,,0,,Pacific/Auckland,,,0,
20001277,1277,,Matua Road - Eaton Crescent Reserve,"74 Matua Road, Matua, Tauranga",-37.664931599,176.120405893,BOP00_1A,,0,,Pacific/Auckland,,,0,
20001278,1278,,Maunganui Road - Commons Avenue,"1/17 Commons Avenue, Mount Maunganui",-37.633912023,176.179899033,BOP00_1A,,0,,Pacific/Auckland,,,0,
20001279,1279,,Maunganui Road - Terrace Avenue,"413 Maunganui Road, Mount Maunganui",-37.647388033551515,176.1908967024575,BOP00_1A,,0,,Pacific/Auckland,,,0,
20001280,1280,,Maunganui Road - Shopping Centre,"123 Maunganui Road, Mount Maunganui",-37.637161735,176.183072914,BOP00_1A,,0,,Pacific/Auckland,,,0,
20001281,1281,,Bethlehem Medical Centre,"16 Bethlehem Road, Bethlehem, Tauranga",-37.693857034,176.11090467,BOP00_1A,,0,,Pacific/Auckland,,,0,
20001282,1282,,Maunganui Road - Clyde Street,"480 Maunganui Road, Mount Maunganui",-37.652526446,176.196368458,BOP00_1A,,0,,Pacific/Auckland,,,0,
20001283,1283,,Maunganui Road - Grove Avenue,"347B Maunganui Road, Mount Maunganui",-37.643388711,176.18752875,BOP00_1A,,0,,Pacific/Auckland,,,0,
20001284,1284,,Maunganui Road - Hinau Street,"439 Maunganui Road, Mount Maunganui",-37.648950582,176.192038078,BOP00_1A,,0,,Pacific/Auckland,,,0,
20001285,1285,,Maunganui Road - Rata Street,"297 Maunganui Road, Mount Maunganui",-37.642280552,176.185861885,BOP00_1A,,0,,Pacific/Auckland,,,0,
20001286,1286,,Maunganui Road - Library,"384 Maunganui Road, Mount Maunganui",-37.645190911,176.189613064,BOP00_1A,,0,,Pacific/Auckland,,,0,
20001287,1287,,Maunganui Road - Opposite Clyde Street,"480 Maunganui Road, Mount Maunganui",-37.652895043435066,176.19663364116838,BOP00_1A,,0,,Pacific/Auckland,,,0,
20001288,1288,,Maunganui Road - Hinau Street,"432 Maunganui Road, Mount Maunganui",-37.648569499,176.191517183,BOP00_1A,,0,,Pacific/Auckland,,,0,
20001289,1289,,Maunganui Road - Tawa Street,"348 Maunganui Road, Mount Maunganui",-37.643719139,176.187645991,BOP00_1A,,0,,Pacific/Auckland,,,0,
20001290,1290,,Maunganui Road - Banks Avenue,"217 Maunganui Road, Mount Maunganui",-37.640048232,176.184371449,BOP00_1A,,0,,Pacific/Auckland,,,0,
20001291,1291,,Maungatapu Shopping Centre,"285 Maungatapu Road, Maungatapu, Tauranga",-37.716472709,176.178839844,BOP00_1A,,0,,Pacific/Auckland,,,0,
20001292,1292,,Maungatapu Road - Opposite Sunset Crescent,"117 Maungatapu Road, Maungatapu, Tauranga",-37.722818148,176.172776638,BOP00_1A,,0,,Pacific/Auckland,,,0,
20001293,1293,,Maungatapu Road - Taipari Street,"298 Maungatapu Road, Maungatapu, Tauranga",-37.715393681,176.179845946,BOP00_1A,,0,,Pacific/Auckland,,,0,
20001294,1294,,Maungatapu Road - Mersea Place,"246 Maungatapu Road, Maungatapu, Tauranga",-37.71723705,176.177565663,BOP00_1A,,0,,Pacific/Auckland,,,0,
20001295,1295,,Maungatapu Road - Sunset Crescent,"136 Maungatapu Road, Maungatapu, Tauranga",-37.723116933,176.172088936,BOP00_1A,,0,,Pacific/Auckland,,,0,
20001296,1296,,Maungatapu Road - Ririnui Place,"178 Maungatapu Road, Maungatapu, Tauranga",-37.721261556,176.174525669,BOP00_1A,,0,,Pacific/Auckland,,,0,
20001297,1297,,Maungatapu Road - Anchorage Grove,"2 Anchorage Grove, Maungatapu, Tauranga",-37.719583182,176.175601391,BOP00_1A,,0,,Pacific/Auckland,,,0,
20001298,1298,,Maungatapu Road - Fronting 346b,"346B Maungatapu Road, Maungatapu, Tauranga",-37.71379719,176.181620695,BOP00_1A,,0,,Pacific/Auckland,,,0,
20001299,1299,,Maungatapu Rd - Before SH29,"398 Maungatapu Road, Maungatapu, Tauranga",-37.712447752,176.183783398,BOP00_1A,,0,,Pacific/Auckland,,,0,
20001300,1300,,Brookfield - Millers Road (Stand D),"7 Millers Road, Brookfield, Tauranga",-37.690401267,176.134117093,BOP00_1A,,0,,Pacific/Auckland,,,0,
20001301,1301,,Moffat Road - Pembroke Drive,"194 Moffat Road, Bethlehem, Tauranga",-37.696954172,176.11245608,BOP00_1A,,0,,Pacific/Auckland,,,0,
20001305,1305,,Moffat Road - St Regis Way,"173 Moffat Road, Bethlehem, Tauranga",-37.698793521,176.112645777,BOP00_1A,,0,,Pacific/Auckland,,,0,
20001306,1306,,Ngatai Road - Opposite Short Street,"189 Ngatai Road, Otumoetai, Tauranga",-37.666491307,176.14658693,BOP00_1A,,0,,Pacific/Auckland,,,0,
20001307,1307,,Bethlehem Road - Cherry Way,"11 Bethlehem Road, Bethlehem, Tauranga",-37.69446396,176.111016113,BOP00_1A,,0,,Pacific/Auckland,,,0,
20001308,1308,,Ngatai Road - Emily Place,"1 Emily Place, Bellevue, Tauranga",-37.669988099,176.134065608,BOP00_1A,,0,,Pacific/Auckland,,,0,
20001309,1309,,Ngatai Road - Matua Saltmarsh,"423 Ngatai Road, Bellevue, Tauranga",-37.673904187,176.130381149,BOP00_1A,,0,,Pacific/Auckland,,,0,
20001310,1310,,Ngatai Road - Opposite Carlton Street Reserve,"407 Ngatai Road, Bellevue, Tauranga",-37.672538193,176.132730556,BOP00_1A,,0,,Pacific/Auckland,,,0,
20001311,1311,,Ngatai Road - Opposite Emily Place,"363B Ngatai Road, Bellevue, Tauranga",-37.669753811,176.13398675,BOP00_1A,,0,,Pacific/Auckland,,,0,
20001312,1312,,Ngatai Road - Crescent Road,"142 Ngatai Road, Otumoetai, Tauranga",-37.667028792,176.150568259,BOP00_1A,,0,,Pacific/Auckland,,,0,
20001313,1313,,Ngatai Road - Carlton Street Reserve,"408A Ngatai Road, Bellevue, Tauranga",-37.672624992,176.132824189,BOP00_1A,,0,,Pacific/Auckland,,,0,
20001314,1314,,Ngatai Road - Otumoetai Health Centre,"266 Ngatai Road, Otumoetai, Tauranga",-37.666150816,176.138765415,BOP00_1A,,0,,Pacific/Auckland,,,0,
20001315,1315,,Ngatai Road -  Opposite Crescent Road,"141 Ngatai Road, Otumoetai, Tauranga",-37.666913676,176.150685369,BOP00_1A,,0,,Pacific/Auckland,,,0,
20001316,1316,,Ngatai Road - Western Road,"324 Ngatai Road, Bellevue, Tauranga",-37.667823017,176.135437415,BOP00_1A,,0,,Pacific/Auckland,,,0,
20001317,1317,,Ngatai Road - Bureta Park,"109 Ngatai Road, Otumoetai, Tauranga",-37.667666673,176.153118619,BOP00_1A,,0,,Pacific/Auckland,,,0,
20001319,1319,,Ngatai Rd - Otumoetai Health Centre,"266 Ngatai Road, Otumoetai, Tauranga",-37.666131845,176.139146106,BOP00_1A,,0,,Pacific/Auckland,,,0,
20001329,1329,,Gravatt Road - Fashion Island,"42 Gravatt Road, Papamoa Beach, Papamoa",-37.700839808,176.279415849,BOP00_1A,,0,,Pacific/Auckland,,,0,
20001330,1330,,Windsor Road - Opposite Bellevue Park,"74 Windsor Road, Bellevue, Tauranga",-37.6817303,176.128436715,BOP00_1A,,0,,Pacific/Auckland,,,0,
20001331,1331,,Rowesdale Drive - Albero Drive,"105 Rowesdale Drive, Ohauiti",-37.749967304244244,176.1564985733403,BOP00_1A,,0,,Pacific/Auckland,,,0,
20001332,1332,,Rowesdale Drive - Revell Drive,"19 Rowesdale Drive, Ohauiti",-37.749769738,176.163613241,BOP00_1A,,0,,Pacific/Auckland,,,0,
20001333,1333,,Ohauiti Road - Ruahine Street,"208 Ohauiti Road, Ohauiti",-37.737282967,176.161524964,BOP00_1A,,0,,Pacific/Auckland,,,0,
20001334,1334,,Ohauiti Road - Fronting No. 242,"240 Ohauiti Road, Ohauiti",-37.739701555,176.160685671,BOP00_1A,,0,,Pacific/Auckland,,,0,
20001335,1335,,Ohauiti Road - Kaimai View Drive,"264 Ohauiti Road, Ohauiti",-37.742073778,176.161046587,BOP00_1A,,0,,Pacific/Auckland,,,0,
20001336,1336,,Ohauiti Road - Maggie Place,"1 Maggie Place, Ohauiti",-37.744408689,176.162131954,BOP00_1A,,0,,Pacific/Auckland,,,0,
20001337,1337,,Ohauiti Road - Tuscany Place,"468 Ohauiti Road, Ohauiti",-37.7480168,176.164575703,BOP00_1A,,0,,Pacific/Auckland,,,0,
20001338,1338,,Hollister Lane - Woodleigh Place,"172 Hollister Lane, Ohauiti",-37.746923355,176.15322714,BOP00_1A,,0,,Pacific/Auckland,,,0,
20001341,1341,,Hollister Lane - Carmel Country Estate,"22 Hollister Lane, Ohauiti",-37.73861313499715,176.1542984750119,BOP00_1A,,0,,Pacific/Auckland,,,0,
20001342,1342,,Oropi Road - Cheyne Road,"2 Merlot Drive, Pyes Pa, Tauranga",-37.740190119,176.140992534,BOP00_1A,,0,,Pacific/Auckland,,,0,
20001346,1346,,Oropi Road - Greerton Park,"90 Oropi Road, Greerton, Tauranga",-37.73446436,176.143271795,BOP00_1A,,0,,Pacific/Auckland,,,0,
20001347,1347,,Oropi Road - Maleme Street,"119 Oropi Road, Greerton, Tauranga",-37.735818117,176.142690626,BOP00_1A,,0,,Pacific/Auckland,,,0,
20001348,1348,,Osprey Drive - Opposite Selwyn Park,"15 Osprey Drive, Welcome Bay, Tauranga",-37.731066785,176.184590195,BOP00_1A,,0,,Pacific/Auckland,,,0,
20001349,1349,,Osprey Drive,"41 Osprey Drive, Welcome Bay, Tauranga",-37.732604537,176.186280996,BOP00_1A,,0,,Pacific/Auckland,,,0,
20001350,1350,,Osprey Drive - Opposite Pelorus Street,"73 Osprey Drive, Welcome Bay, Tauranga",-37.734626203,176.186306425,BOP00_1A,,0,,Pacific/Auckland,,,0,
20001351,1351,,Osprey Drive - Bateleur Close,"2 Bateleur Close, Welcome Bay, Tauranga",-37.733926347452595,176.1892220929774,BOP00_1A,,0,,Pacific/Auckland,,,0,
20001352,1352,,Otumoetai Road - Bennett Street,"434 Otumoetai Road, Otumoetai, Tauranga",-37.671766621,176.138614634,BOP00_1A,,0,,Pacific/Auckland,,,0,
20001353,1353,,Otumoetai Road - Keilor Road,"389 Otumoetai Road, Otumoetai, Tauranga",-37.673690387,176.138190578,BOP00_1A,,0,,Pacific/Auckland,,,0,
20001354,1354,,Otumoetai Road - Cherrywood Shops,"475 Otumoetai Road, Otumoetai, Tauranga",-37.668638929,176.139410572,BOP00_1A,,0,,Pacific/Auckland,,,0,
20001355,1355,,Otumoetai Road - Glenn Terrace,"2 Glenn Terrace, Otumoetai, Tauranga",-37.677168784,176.136380057,BOP00_1A,,0,,Pacific/Auckland,,,0,
20001356,1356,,Otumoetai Road - Grange Road,"281 Otumoetai Road, Otumoetai, Tauranga",-37.6803687793587,176.13633235034,BOP00_1A,,0,,Pacific/Auckland,,,0,
20001357,1357,,Otumoetai Road - Opposite Otumoetai Primary School,"221A Otumoetai Road, Otumoetai, Tauranga",-37.682780949,176.136040843,BOP00_1A,,0,,Pacific/Auckland,,,0,
20001358,1358,,Otumoetai Road - Opposite Brookfield Shops,"127 Otumoetai Road, Brookfield, Tauranga",-37.689214203,176.135885818,BOP00_1A,,0,,Pacific/Auckland,,,0,
20001359,1359,,Otumoetai Road - Linley Terrace,"55A Otumoetai Road, Judea, Tauranga",-37.692726814,176.135405615,BOP00_1A,,0,,Pacific/Auckland,,,0,
20001360,1360,,Otumoetai Road - Longwood Lane,"433 Otumoetai Road, Otumoetai, Tauranga",-37.672090772,176.138679252,BOP00_1A,,0,,Pacific/Auckland,,,0,
20001362,1362,,Otumoetai Road - Opposite Keilor Road,"382 Otumoetai Road, Otumoetai, Tauranga",-37.673852283,176.137927505,BOP00_1A,,0,,Pacific/Auckland,,,0,
20001363,1363,,Otumoetai Road - Cherrywood Shops,"470 Otumoetai Road, Otumoetai, Tauranga",-37.668768189,176.139260623,BOP00_1A,,0,,Pacific/Auckland,,,0,
20001364,1364,,Otumoetai Road - Lydbrook Place,"266 Otumoetai Road, Otumoetai, Tauranga",-37.680428257,176.136204176,BOP00_1A,,0,,Pacific/Auckland,,,0,
20001365,1365,,Otumoetai Primary School,"236 Otumoetai Road, Otumoetai, Tauranga",-37.68226236,176.136018604,BOP00_1A,,0,,Pacific/Auckland,,,0,
20001366,1366,,Otumoetai Road - Brookfield Shops,"146 Otumoetai Road, Brookfield, Tauranga",-37.688949534,176.135635389,BOP00_1A,,0,,Pacific/Auckland,,,0,
20001367,1367,,Otumoetai Road - Lees Park,"76 Otumoetai Road, Judea, Tauranga",-37.691880184,176.13550319,BOP00_1A,,0,,Pacific/Auckland,,,0,
20001368,1368,,Otumoetai Road - David Street,"18 Otumoetai Road, Judea, Tauranga",-37.695362599,176.134546683,BOP00_1A,,0,,Pacific/Auckland,,,0,
20001369,1369,,Otumoetai Road - Opposite David Street,"3 Otumoetai Road, Judea, Tauranga",-37.695454213,176.134700057,BOP00_1A,,0,,Pacific/Auckland,,,0,
20001371,1371,,Papamoa Beach Road - Opposite Kirkpatrick Place,"966 Papamoa Beach Road, Papamoa Beach, Papamoa",-37.710751097,176.32290515,BOP00_1A,,0,,Pacific/Auckland,,,0,
20001372,1372,,Papamoa Beach Road - Opposite Palm Springs Boulevard,"1049 Papamoa Beach Road, Papamoa Beach, Papamoa",-37.713147768,176.330572594,BOP00_1A,,0,,Pacific/Auckland,,,0,
20001373,1373,,Papamoa Beach Road - Motiti Road,"1069D Papamoa Beach Road, Papamoa Beach, Papamoa",-37.713811114,176.332819859,BOP00_1A,,0,,Pacific/Auckland,,,0,
20001374,1374,,Papamoa Beach Road - Opposite Calypso Drive,"1133 Papamoa Beach Road, Papamoa Beach, Papamoa",-37.7151547010075,176.337141663391,BOP00_1A,,0,,Pacific/Auckland,,,0,
20001375,1375,,Papamoa Beach Road - Motiti Reserve,"1159 Papamoa Beach Road, Papamoa Beach, Papamoa",-37.7162333468988,176.339807290558,BOP00_1A,,0,,Pacific/Auckland,,,0,
20001376,1376,,Papamoa Beach Road - Opposite Parton Road,"914 Papamoa Beach Road, Papamoa Beach, Papamoa",-37.709201876,176.318718738,BOP00_1A,,0,,Pacific/Auckland,,,0,
20001377,1377,,Papamoa Beach Road - Parton Road,"918A Papamoa Beach Road, Papamoa Beach, Papamoa",-37.709423995,176.318981262,BOP00_1A,,0,,Pacific/Auckland,,,0,
20001378,1378,,Bellevue Park,"73A Windsor Road, Bellevue, Tauranga",-37.68157939,176.128584357,BOP00_1A,,0,,Pacific/Auckland,,,0,
20001379,1379,,Windermere Drive - Poike Road - Out,"11 Windermere Drive, Poike, Tauranga",-37.73632426,176.15023275,BOP00_1A,,0,,Pacific/Auckland,,,0,
20001380,1380,,Cheyne Road - Merlot Drive,"1 Merlot Drive, Pyes Pa, Tauranga",-37.740667545,176.13950756,BOP00_1A,,0,,Pacific/Auckland,,,0,
20001381,1381,,Papamoa Beach Road - Palm Springs Boulevard,"1050 Papamoa Beach Road, Papamoa Beach, Papamoa",-37.713226298934,176.33044005373,BOP00_1A,,0,,Pacific/Auckland,,,0,
20001382,1382,,Papamoa Beach Road,"942A Papamoa Beach Road, Papamoa Beach, Papamoa",-37.710182189,176.320900581,BOP00_1A,,0,,Pacific/Auckland,,,0,
20001383,1383,,Papamoa Beach Road - Opposite Motiti Reserve,"1170A Papamoa Beach Road, Papamoa Beach, Papamoa",-37.716090934,176.339267889,BOP00_1A,,0,,Pacific/Auckland,,,0,
20001384,1384,,Papamoa Beach Road - Golden Sands Drive,"1206 Papamoa Beach Road, Papamoa Beach, Papamoa",-37.71781354,176.343612631,BOP00_1A,,0,,Pacific/Auckland,,,0,
20001385,1385,,Papamoa Beach Road - Thompson Drive,"1276 Papamoa Beach Road, Papamoa Beach, Papamoa",-37.72010696,176.349054439,BOP00_1A,,0,,Pacific/Auckland,,,0,
20001387,1387,,Papamoa Beach Road - Short Place,"1244 Papamoa Beach Road, Papamoa Beach, Papamoa",-37.719303692,176.347187525,BOP00_1A,,0,,Pacific/Auckland,,,0,
20001388,1388,,Papamoa Beach Road - Karewa Parade,"1196 Papamoa Beach Road, Papamoa Beach, Papamoa",-37.717242581,176.342173081,BOP00_1A,,0,,Pacific/Auckland,,,0,
20001389,1389,,Papamoa Beach Road - Calypso Drive,"1142A Papamoa Beach Road, Papamoa Beach, Papamoa",-37.71476642,176.335749179,BOP00_1A,,0,,Pacific/Auckland,,,0,
20001390,1390,,Papamoa Beach Road - Opposite Motiti Road,"1110 Papamoa Beach Road, Papamoa Beach, Papamoa",-37.713972775,176.332952779,BOP00_1A,,0,,Pacific/Auckland,,,0,
20001391,1391,,Papamoa Beach Road - Opposite No. 988,"988 Papamoa Beach Road, Papamoa Beach, Papamoa",-37.711423335,176.324927301,BOP00_1A,,0,,Pacific/Auckland,,,0,
20001392,1392,,Papamoa Beach Road - Kirkpatrick Place,"970 Papamoa Beach Road, Papamoa Beach, Papamoa",-37.711020212,176.323394883,BOP00_1A,,0,,Pacific/Auckland,,,0,
20001393,1393,,Parton Road - Simpson Reserve,"5 Parton Road, Papamoa Beach, Papamoa",-37.709353549,176.316497578,BOP00_1A,,0,,Pacific/Auckland,,,0,
20001395,1395,,Poike Road - Changepoint Church,"131 Poike Road, Hairini, Tauranga",-37.73755975264578,176.15309165326022,BOP00_1A,,0,,Pacific/Auckland,,,0,
20001396,1396,,Poike Road - Sapphire Drive,"69 Poike Road, Hairini, Tauranga",-37.737373139,176.156777771,BOP00_1A,,0,,Pacific/Auckland,,,0,
20001397,1397,,Cheyne Road - Waterside Dr,"281 Cheyne Road, Pyes Pa, Tauranga",-37.742300763755,176.13745996462,BOP00_1A,,0,,Pacific/Auckland,,,0,
20001398,1398,,Poike Road - Corwen Avenue,"1 Corwen Avenue, Hairini, Tauranga",-37.738073432,176.153559579,BOP00_1A,,0,,Pacific/Auckland,,,0,
20001399,1399,,Windermere Drive - Lagoon Place,"111 Windermere Drive, Poike, Tauranga",-37.731298992,176.149987809,BOP00_1A,,0,,Pacific/Auckland,,,0,
20001400,1400,,Condor Drive - Bellbird Rise,"5 Condor Drive, Pyes Pa, Tauranga",-37.7438020486702,176.134330042482,BOP00_1A,,0,,Pacific/Auckland,,,0,
20001401,1401,,Pyes Pa Road - Opposite Stableford Drive,"47 Pyes Pa Road, Pyes Pa, Tauranga",-37.738868699,176.121859168,BOP00_1A,,0,,Pacific/Auckland,,,0,
20001402,1402,,Pyes Pa Road - Althorp Avenue,"78 Pyes Pa Road, Pyes Pa, Tauranga",-37.7417992210264,176.12216620023,BOP00_1A,,0,,Pacific/Auckland,,,0,
20001403,1403,,Pyes Pa Road - Ahuru Place,"123B Pyes Pa Road, Pyes Pa, Tauranga",-37.745588168,176.122604693,BOP00_1A,,0,,Pacific/Auckland,,,0,
20001404,1404,,Inverness Drive,"15 Inverness Drive, Pyes Pa, Tauranga",-37.747587717,176.123262441,BOP00_1A,,0,,Pacific/Auckland,,,0,
20001406,1406,,Pyes Pa Road - Freeburn Road,"8 Horsley Grove, Pyes Pa, Tauranga",-37.749705238,176.121571954,BOP00_1A,,0,,Pacific/Auckland,,,0,
20001407,1407,,Pyes Pa Road - Saville Place,"130 Pyes Pa Road, Pyes Pa, Tauranga",-37.746462534,176.122128689,BOP00_1A,,0,,Pacific/Auckland,,,0,
20001408,1408,,Pyes Pa Road - Kopu Drive,"76 Pyes Pa Road, Pyes Pa, Tauranga",-37.741727044,176.12192023,BOP00_1A,,0,,Pacific/Auckland,,,0,
20001409,1409,,Pyes Pa Road - Stableford Drive,"40 Pyes Pa Road, Pyes Pa, Tauranga",-37.738530744,176.121772238,BOP00_1A,,0,,Pacific/Auckland,,,0,
20001411,1411,,Queen Road - Princess Road - South,"33 Queen Road, Bellevue, Tauranga",-37.678419394,176.127581275,BOP00_1A,,0,,Pacific/Auckland,,,0,
20001412,1412,,Queen Road - Princess Road - North,"38 Queen Road, Bellevue, Tauranga",-37.678181,176.127466,BOP00_1A,,0,,Pacific/Auckland,,,0,
20001413,1413,,Queen Road - Charles Street,"70 Queen Road, Bellevue, Tauranga",-37.675840812,176.128284163,BOP00_1A,,0,,Pacific/Auckland,,,0,
20001414,1414,,Dive Crescent - Marsh Street,"80 Dive Crescent, Tauranga",-37.674911135,176.169329919,BOP00_1A,,0,,Pacific/Auckland,,,0,
20001420,1420,,Papamoa Beach Road - Sandhurst Drive,"11 Otira Close, Papamoa Beach, Papamoa",-37.681859513,176.2504692,BOP00_1A,,0,,Pacific/Auckland,,,0,
20001422,1422,,Windermere Drive - College Place,"1 College Place, Poike, Tauranga",-37.729128087,176.150982211,BOP00_1A,,0,,Pacific/Auckland,,,0,
20001424,1424,,Windermere Drive - Toi Ohomai,"90 Windermere Drive, Poike, Tauranga",-37.732819562,176.150427716,BOP00_1A,,0,,Pacific/Auckland,,,0,
20001425,1425,,Windermere Drive - Poike Road - In,"5B Windermere Drive, Poike, Tauranga",-37.736331886,176.150078679,BOP00_1A,,0,,Pacific/Auckland,,,0,
20001426,1426,,Mt Maunganui - Salisbury Avenue,"10 Salisbury Avenue, Mount Maunganui",-37.640080182,176.183322798,BOP00_1A,,0,,Pacific/Auckland,,,0,
20001427,1427,,Chapel Street,"60 Chapel Street, Tauranga",-37.674777961,176.16537683,BOP00_1A,,0,,Pacific/Auckland,,,0,
20001428,1428,,St Andrews Drive - Glenrowan Rise,"288 St Andrews Drive, Bethlehem, Tauranga",-37.711116882,176.116000908,BOP00_1A,,0,,Pacific/Auckland,,,0,
20001433,1433,,Taipari Street - Maungatapu Road,"309 Maungatapu Road, Maungatapu, Tauranga",-37.715460299,176.180381858,BOP00_1A,,0,,Pacific/Auckland,,,0,
20001434,1434,,Castlewold Drive - Wakefield Drive,"67 Castlewold Drive, Bethlehem, Tauranga",-37.707471585,176.117770875,BOP00_1A,,0,,Pacific/Auckland,,,0,
20001435,1435,,Tilby Drive - Waratah Street,"67 Tilby Drive, Matua, Tauranga",-37.66308553,176.124640223,BOP00_1A,,0,,Pacific/Auckland,,,0,
20001436,1436,,Tilby Drive - Clivedene Street,"31 Tilby Drive, Matua, Tauranga",-37.664709048,176.126383916,BOP00_1A,,0,,Pacific/Auckland,,,0,
20001437,1437,,Castlewold Drive- Siemonek Rise,"117 Castlewold Drive, Bethlehem, Tauranga",-37.705860198,176.118972291,BOP00_1A,,0,,Pacific/Auckland,,,0,
20001438,1438,,Tom Muir Drive - Grantham Close,"49 Tom Muir Drive, Gate Pa, Tauranga",-37.712693646,176.133921021,BOP00_1A,,0,,Pacific/Auckland,,,0,
20001439,1439,,Tom Muir Drive - Sunvale Place,"74 Tom Muir Drive, Gate Pa, Tauranga",-37.715253038,176.134835594,BOP00_1A,,0,,Pacific/Auckland,,,0,
20001440,1440,,Tom Muir Drive,"50 Tom Muir Drive, Gate Pa, Tauranga",-37.713065072,176.135556166,BOP00_1A,,0,,Pacific/Auckland,,,0,
20001441,1441,,Castlewold Drive,"189 Castlewold Drive, Bethlehem, Tauranga",-37.702113038,176.121756592,BOP00_1A,,0,,Pacific/Auckland,,,0,
20001442,1442,,Castlewold Drive - Shrewsbury Close,"251 Castlewold Drive, Bethlehem, Tauranga",-37.7002166,176.123697458,BOP00_1A,,0,,Pacific/Auckland,,,0,
20001443,1443,,Turret Road,"83 Turret Road, Tauranga South, Tauranga",-37.71449275,176.165209672,BOP00_1A,,0,,Pacific/Auckland,,,0,
20001444,1444,,Sterling Gate Drive - Amberley Crescent,"46 Sterling Gate Drive, Bethlehem, Tauranga",-37.701558035,176.125152506,BOP00_1A,,0,,Pacific/Auckland,,,0,
20001445,1445,,Tuthill Street - Dunrobbin Place,"9 Tuthill Street, Gate Pa, Tauranga",-37.719611188,176.133172713,BOP00_1A,,0,,Pacific/Auckland,,,0,
20001446,1446,,Tuthill Street - Opposite Dunrobbin Place,"12 Tuthill Street, Gate Pa, Tauranga",-37.719601119,176.132779317,BOP00_1A,,0,,Pacific/Auckland,,,0,
20001448,1448,,Vale Street,"24 Vale Street, Otumoetai, Tauranga",-37.669911518,176.154518785,BOP00_1A,,0,,Pacific/Auckland,,,0,
20001452,1452,,Valley Road - Tui Street,"178 Valley Road, Mount Maunganui",-37.657242477244,176.2076848652,BOP00_1A,,0,,Pacific/Auckland,,,0,
20001453,1453,,Dee Street,"134 Valley Road, Mount Maunganui",-37.654699111,176.203806927,BOP00_1A,,0,,Pacific/Auckland,,,0,
20001454,1454,,Sterling Gate Drive - Portchester Close,"22 Sterling Gate Drive, Bethlehem, Tauranga",-37.703078872,176.12494324,BOP00_1A,,0,,Pacific/Auckland,,,0,
20001455,1455,,Victory Street - Opposite Archilles Crescent,"43 Victory Street, Welcome Bay, Tauranga",-37.728860915818,176.18485294889,BOP00_1A,,0,,Pacific/Auckland,,,0,
20001456,1456,,Waihi Road - Judea Heights,"153 Waihi Road, Judea, Tauranga",-37.695412212923614,176.14302711698878,BOP00_1A,,0,,Pacific/Auckland,,,0,
20001457,1457,,Waihi Road - Churchill Road,"101 Waihi Road, Judea, Tauranga",-37.69624684,176.146673412,BOP00_1A,,0,,Pacific/Auckland,,,0,
20001458,1458,,Waihi Road - Robins Road,"75 Waihi Road, Judea, Tauranga",-37.696981899,176.148213016,BOP00_1A,,0,,Pacific/Auckland,,,0,
20001459,1459,,Waihi Road - Paine Street,"164 Waihi Road, Judea, Tauranga",-37.695271411,176.141803563,BOP00_1A,,0,,Pacific/Auckland,,,0,
20001460,1460,,Waitaha Reserve,"13 Waitaha Road, Welcome Bay, Tauranga",-37.725846706,176.190435005,BOP00_1A,,0,,Pacific/Auckland,,,0,
20001462,1462,,Waitaha Road - D'Urville Way,"159 Waitaha Road, Welcome Bay, Tauranga",-37.732833268,176.19096039,BOP00_1A,,0,,Pacific/Auckland,,,0,
20001463,1463,,Bellevue Road - Sutherland Road,"17 Bellevue Road, Brookfield, Tauranga",-37.693408145,176.138766441,BOP00_1A,,0,,Pacific/Auckland,,,0,
20001464,1464,,Bellevue Road - Opposite Sutherland Road,"22 Bellevue Road, Brookfield, Tauranga",-37.692912611,176.138359471,BOP00_1A,,0,,Pacific/Auckland,,,0,
20001465,1465,,Brookfield - Millers Road (Stand C),"11 Millers Road, Brookfield, Tauranga",-37.690272558,176.133745741,BOP00_1A,,0,,Pacific/Auckland,,,0,
20001466,1466,,Millers Road - Solomon Street,"23/100 Millers Road, Brookfield, Tauranga",-37.691196525,176.126514732,BOP00_1A,,0,,Pacific/Auckland,,,0,
20001467,1467,,Waratah Street - Shaw Place,"18 Waratah Street, Matua, Tauranga",-37.662461674,176.133892503,BOP00_1A,,0,,Pacific/Auckland,,,0,
20001468,1468,,Millers Road - Outside 91,"91 Millers Road, Brookfield, Tauranga",-37.691125,176.12714,BOP00_1A,,0,,Pacific/Auckland,,,0,
20001469,1469,,Cameron Road - Greenpark School,"1468 Cameron Road, Greerton, Tauranga",-37.7324978299656,176.125914634795,BOP00_1A,,0,,Pacific/Auckland,,,0,
20001470,1470,,Warrington Street - Matua Road,"36 Warrington Street, Matua, Tauranga",-37.666411233,176.124166959,BOP00_1A,,0,,Pacific/Auckland,,,0,
20001471,1471,,Warrington Street,"4 Warrington Street, Matua, Tauranga",-37.665674594,176.126719804,BOP00_1A,,0,,Pacific/Auckland,,,0,
20001472,1472,,Pyes Pa Road - Havenbrook Way,"12 Pyes Pa Road, Pyes Pa, Tauranga",-37.736241872,176.122728878,BOP00_1A,,0,,Pacific/Auckland,,,0,
20001473,1473,,Watling Street - Twenty-third Avenue - South,"18 Watling Street, Gate Pa, Tauranga",-37.712654541,176.139781383,BOP00_1A,,0,,Pacific/Auckland,,,0,
20001474,1474,,Watling Street - Gate Pa Domain,"64 Watling Street, Gate Pa, Tauranga",-37.714699622,176.137120832,BOP00_1A,,0,,Pacific/Auckland,,,0,
20001475,1475,,Watling Street - Opposite Gate Pa Domain,"89 Watling Street, Gate Pa, Tauranga",-37.714757639,176.136851782,BOP00_1A,,0,,Pacific/Auckland,,,0,
20001476,1476,,Watling Street - Twentythird Avenue,"25 Watling Street, Gate Pa, Tauranga",-37.712528878,176.139744954,BOP00_1A,,0,,Pacific/Auckland,,,0,
20001477,1477,,Weka Street,"5 Weka Street, Matua, Tauranga",-37.66756314,176.118386597,BOP00_1A,,0,,Pacific/Auckland,,,0,
20001478,1478,,Welcome Bay Road - Dairy,"167 Welcome Bay Road, Welcome Bay, Tauranga",-37.724835155,176.182192191,BOP00_1A,,0,,Pacific/Auckland,,,0,
20001479,1479,,Welcome Bay Shopping Centre,"279 Welcome Bay Road, Welcome Bay, Tauranga",-37.725102535,176.192971532,BOP00_1A,,0,,Pacific/Auckland,,,0,
20001481,1481,,Welcome Bay Road - Arawata Avenue,"365 Welcome Bay Road, Welcome Bay, Tauranga",-37.727521196,176.198985066,BOP00_1A,,0,,Pacific/Auckland,,,0,
20001483,1483,,Welcome Bay Hall,"244 Welcome Bay Road, Welcome Bay, Tauranga",-37.725235754,176.191395629,BOP00_1A,,0,,Pacific/Auckland,,,0,
20001484,1484,,Welcome Bay Road - Meadowviews Drive,"133 Welcome Bay Road, Welcome Bay, Tauranga",-37.725385657,176.18005168,BOP00_1A,,0,,Pacific/Auckland,,,0,
20001487,1487,,Welcome Bay Road - Vet Clinic,"68 Welcome Bay Road, Welcome Bay, Tauranga",-37.726847896,176.175693652,BOP00_1A,,0,,Pacific/Auckland,,,0,
20001488,1488,,Welcome Bay Road - Awanui Place,"47 Welcome Bay Road, Welcome Bay, Tauranga",-37.726887294259214,176.17515583000647,BOP00_1A,,0,,Pacific/Auckland,,,0,
20001489,1489,,Welcome Bay Road - Stand C,"23 Stonewall Way, Hairini, Tauranga",-37.72759058491859,176.1707562721807,BOP00_1A,,0,,Pacific/Auckland,,,0,
20001490,1490,,Welcome Bay Road - Opposite Meadowviews Drive,"111 Welcome Bay Road, Welcome Bay, Tauranga",-37.7256371114318,176.179000664404,BOP00_1A,,0,,Pacific/Auckland,,,0,
20001492,1492,,Ngatai Road - Opposite Western Road,"324 Ngatai Road, Bellevue, Tauranga",-37.667647459,176.135443816,BOP00_1A,,0,,Pacific/Auckland,,,0,
20001493,1493,,Goods Road - Rutherford Street,"11 Goods Road, Otumoetai, Tauranga",-37.674585254,176.155344455,BOP00_1A,,0,,Pacific/Auckland,,,0,
20001494,1494,,Goods Road - Opposite Rutherford Street,"16A Goods Road, Otumoetai, Tauranga",-37.674862153,176.155404765,BOP00_1A,,0,,Pacific/Auckland,,,0,
20001495,1495,,Milton Road - Goods Road - East,"3 Milton Road, Otumoetai, Tauranga",-37.676053698,176.154570576,BOP00_1A,,0,,Pacific/Auckland,,,0,
20001496,1496,,Milton Road - Goods Road - West,"2 Milton Road, Otumoetai, Tauranga",-37.676156631,176.154536771,BOP00_1A,,0,,Pacific/Auckland,,,0,
20001497,1497,,Milton Road - Karaka Road,"57 Milton Road, Otumoetai, Tauranga",-37.675941893,176.150607261,BOP00_1A,,0,,Pacific/Auckland,,,0,
20001498,1498,,Milton Road - Opposite Karaka Road,"54 Milton Road, Otumoetai, Tauranga",-37.675959618,176.150975766,BOP00_1A,,0,,Pacific/Auckland,,,0,
20001499,1499,,Milton Road - Grange Road - East,"95 Milton Road, Otumoetai, Tauranga",-37.67622658,176.147590503,BOP00_1A,,0,,Pacific/Auckland,,,0,
20001500,1500,,Milton Road - Grange Road - West,"92 Milton Road, Otumoetai, Tauranga",-37.676391664,176.148017284,BOP00_1A,,0,,Pacific/Auckland,,,0,
20001501,1501,,Grenada Street - Fahey Ave,"98 Grenada Street, Mount Maunganui",-37.679369304,176.235364263,BOP00_1A,,0,,Pacific/Auckland,,,0,
20001502,1502,,Otumoetai College,"100 Windsor Road, Bellevue, Tauranga",-37.680168081,176.128456669,BOP00_1A,,0,,Pacific/Auckland,,,0,
20001503,1503,,Greenpark School,"1468 Cameron Road, Greerton, Tauranga",-37.732415308,176.126255751,BOP00_1A,,0,,Pacific/Auckland,,,0,
20001504,1504,,Maunganui Road - Opposite Library,"389 Maunganui Road, Mount Maunganui",-37.645528988,176.190115065,BOP00_1A,,0,,Pacific/Auckland,,,0,
20001505,1505,,Lakes Boulevard - Caldera Crescent,"Lakes Boulevard, Pyes Pa, Tauranga",-37.739448737,176.109222453,BOP00_1A,,0,,Pacific/Auckland,,,0,
20001506,1506,,Maunganui Road - Tay Street,"462 Maunganui Road, Mount Maunganui",-37.650629311257624,176.19335428161475,BOP00_1A,,0,,Pacific/Auckland,,,0,
20001507,1507,,Maunganui Road - Blake Park,"1A Tay Street, Mount Maunganui",-37.65070229355068,176.19326635525152,BOP00_1A,,0,,Pacific/Auckland,,,0,
20001508,1508,,Ranui Street - Strathmore Street,"5 Ranui Street, Matua, Tauranga",-37.664372783,176.13489941,BOP00_1A,,0,,Pacific/Auckland,,,0,
20001509,1509,,Ranui Street - Pah Street,"29 Ranui Street, Matua, Tauranga",-37.662934361,176.135057826,BOP00_1A,,0,,Pacific/Auckland,,,0,
20001511,1511,,Dive Crescent - Opposite Marsh Street,"80 Dive Crescent, Tauranga",-37.674847474,176.169043146,BOP00_1A,,0,,Pacific/Auckland,,,0,
20001512,1512,,Gravatt Road - Papamoa Plaza,"7 Gravatt Road, Papamoa Beach, Papamoa",-37.700730587,176.283507146,BOP00_1A,,0,,Pacific/Auckland,,,0,
20001513,1513,,Ohauiti Road - Kaimai Place,"118 Ohauiti Road, Hairini, Tauranga",-37.732375073,176.1647026,BOP00_1A,,0,,Pacific/Auckland,,,0,
20001514,1514,,Pyes Pa Road - Cheyne Road,"29 Pyes Pa Road, Pyes Pa, Tauranga",-37.737333556,176.122478576,BOP00_1A,,0,,Pacific/Auckland,,,0,
20001515,1515,,Parton Road - Dickson Road,"10 Pompallier Lane, Papamoa Beach, Papamoa",-37.709835022,176.315877428,BOP00_1A,,0,,Pacific/Auckland,,,0,
20001516,1516,,Cameron Road - Maitland Street,"1416A Cameron Road, Greerton, Tauranga",-37.729467715,176.129441196,BOP00_1A,,0,,Pacific/Auckland,,,0,
20001519,1519,,The Mall - Pacific Avenue,"1 Pacific Avenue, Mount Maunganui",-37.63688548,176.1798298,BOP00_1A,,0,,Pacific/Auckland,,,0,
20001520,1520,,Fifteenth Avenue - Devonport Road - West,"164C Fifteenth Avenue, Tauranga South, Tauranga",-37.70550455,176.1566022,BOP00_1A,,0,,Pacific/Auckland,,,0,
20001521,1521,,Oceanbeach Road - McDowell Street,"46A Oceanbeach Road, Mount Maunganui",-37.6576067786364,176.211343342783,BOP00_1A,,0,,Pacific/Auckland,,,0,
20001522,1522,,Oceanbeach Road -  Opposite McDowell Street,"53 Oceanbeach Road, Mount Maunganui",-37.6577657053014,176.211598949934,BOP00_1A,,0,,Pacific/Auckland,,,0,
20001523,1523,,Oceanbeach Road - Tweed Street,"8A Oceanbeach Road, Mount Maunganui",-37.6547568859447,176.207876005328,BOP00_1A,,0,,Pacific/Auckland,,,0,
20001524,1524,,Oceanbeach Road - Moa Street,"3 Oceanbeach Road, Mount Maunganui",-37.65502,176.20844,BOP00_1A,,0,,Pacific/Auckland,,,0,
20001525,1525,,Tweed Street -  Opposite Hart Street,"13 Tweed Street, Mount Maunganui",-37.65331,176.2041,BOP00_1A,,0,,Pacific/Auckland,,,0,
20001526,1526,,Tweed Street - Hart Street,"13 Tweed Street, Mount Maunganui",-37.6532324547392,176.204039415616,BOP00_1A,,0,,Pacific/Auckland,,,0,
20001527,1527,,Chapel Street - Bay Central Shopping Centre,"75 Chapel Street, Tauranga",-37.67287354,176.1631408,BOP00_1A,,0,,Pacific/Auckland,,,0,
20001528,1528,,Papamoa Beach Road - Fronting No.1008,"1008A Papamoa Beach Road, Papamoa Beach, Papamoa",-37.712069,176.32648,BOP00_1A,,0,,Pacific/Auckland,,,0,
20001529,1529,,Papamoa Beach Road - Oceania Sands Way,"213A Papamoa Beach Road, Papamoa Beach, Papamoa",-37.6833576681848,176.253535293972,BOP00_1A,,0,,Pacific/Auckland,,,0,
20001530,1530,,Papamoa Beach Road - Fronting No.216,"216A Papamoa Beach Road, Papamoa Beach, Papamoa",-37.68355919968621,176.2537030017033,BOP00_1A,,0,,Pacific/Auckland,,,0,
20001531,1531,,Coopers Road - Peri Street,"26 Coopers Road, Gate Pa, Tauranga",-37.718357928,176.132130987,BOP00_1A,,0,,Pacific/Auckland,,,0,
20001533,1533,,Brookfield Medical Centre,"68 Bureta Road, Otumoetai, Tauranga",-37.6709,176.1526,BOP00_1A,,0,,Pacific/Auckland,,,0,
20001534,1534,,Bureta Road - Brookfield Medical Centre,"69 Bureta Road, Otumoetai, Tauranga",-37.6708,176.1524,BOP00_1A,,0,,Pacific/Auckland,,,0,
20001535,1535,,Pillans Road,"1/92 Pillans Road, Otumoetai, Tauranga",-37.6734,176.1542,BOP00_1A,,0,,Pacific/Auckland,,,0,
20001536,1536,,Pillans Road - Pine Avenue,"115 Pillans Road, Otumoetai, Tauranga",-37.6734,176.1538,BOP00_1A,,0,,Pacific/Auckland,,,0,
20001540,1540,,Gloucester Road - Hillier Centre,"17 Gloucester Road, Mount Maunganui",-37.6770565,176.2261447,BOP00_1A,,0,,Pacific/Auckland,,,0,
20001541,1541,,Gloucester Road - Monowai Street,"48 Gloucester Road, Mount Maunganui",-37.67941885,176.2273864,BOP00_1A,,0,,Pacific/Auckland,,,0,
20001545,1545,,Doncaster Dr - Opposite Summerland Cr,"50 Doncaster Drive, Papamoa Beach, Papamoa",-37.70748,176.29188,BOP00_1A,,0,,Pacific/Auckland,,,0,
20001546,1546,,Doncaster Drive - Summerland Crescent,"50 Doncaster Drive, Papamoa Beach, Papamoa",-37.70743,176.29192,BOP00_1A,,0,,Pacific/Auckland,,,0,
20001547,1547,,Doncaster Drive - Carrington Drive,"95 Doncaster Drive, Papamoa Beach, Papamoa",-37.70885,176.29564,BOP00_1A,,0,,Pacific/Auckland,,,0,
20001548,1548,,Doncaster Drive Reserve,"94 Doncaster Drive, Papamoa Beach, Papamoa",-37.70891,176.2956,BOP00_1A,,0,,Pacific/Auckland,,,0,
20001549,1549,,Doncaster Drive - Opposite Papamoa College,"178 Doncaster Drive, Papamoa Beach, Papamoa",-37.71255,176.30021,BOP00_1A,,0,,Pacific/Auckland,,,0,
20001550,1550,,Doncaster Drive - Papamoa College,"176 Doncaster Drive, Papamoa Beach, Papamoa",-37.712577288988,176.30039118316,BOP00_1A,,0,,Pacific/Auckland,,,0,
20001551,1551,,Golden Sands Drive,"1200 Papamoa Beach Road, Papamoa Beach, Papamoa",-37.71817021782108,176.34238930738024,BOP00_1A,,0,,Pacific/Auckland,,,0,
20001552,1552,,Wairakei Avenue - Sarah Place,"1 Toetoe Street, Papamoa Beach, Papamoa",-37.719317231141,176.34366960805,BOP00_1A,,0,,Pacific/Auckland,,,0,
20001553,1553,,Wairakei Avenue - Euphorbia Street,"129 Wairakei Avenue, Papamoa Beach, Papamoa",-37.72069157212,176.34433145013,BOP00_1A,,0,,Pacific/Auckland,,,0,
20001554,1554,,Wairakei Avenue - Torbin Place,"147 Wairakei Avenue, Papamoa Beach, Papamoa",-37.721626480321,176.34604227026,BOP00_1A,,0,,Pacific/Auckland,,,0,
20001555,1555,,Wairakei Avenue - Emerald Shores Reserve,"177 Wairakei Avenue, Papamoa Beach, Papamoa",-37.723,176.349,BOP00_1A,,0,,Pacific/Auckland,,,0,
20001556,1556,,Emerald Shores Drive - Opposite Nautilus Drive,"11 Emerald Shores Drive, Papamoa Beach, Papamoa",-37.7224190860935,176.350867512223,BOP00_1A,,0,,Pacific/Auckland,,,0,
20001557,1557,,Doncaster Drive - Lewknor Drive,"137 Doncaster Drive, Papamoa Beach, Papamoa",-37.71022685,176.2999085,BOP00_1A,,0,,Pacific/Auckland,,,0,
20001558,1558,,Parton Road - Gordon Spratt Reserve,"R/230 Parton Road, Papamoa Beach, Papamoa",-37.7129774,176.3098261,BOP00_1A,,0,,Pacific/Auckland,,,0,
20001559,1559,,Parton Road - Papamoa Primary School,"80 Parton Road, Papamoa Beach, Papamoa",-37.7107973,176.3137978,BOP00_1A,,0,,Pacific/Auckland,,,0,
20001560,1560,,Papamoa Beach Road - Emerald Shores Drive,"1286 Papamoa Beach Road, Papamoa Beach, Papamoa",-37.72077587,176.3503602,BOP00_1A,,0,,Pacific/Auckland,,,0,
20001561,1561,,Gloucester Road - Lambeth Terrace,"44 Gloucester Road, Mount Maunganui",-37.67915169,176.2270776,BOP00_1A,,0,,Pacific/Auckland,,,0,
20001562,1562,,Gloucester Road - Eversham Road,"22 Gloucester Road, Mount Maunganui",-37.67731169,176.2260909,BOP00_1A,,0,,Pacific/Auckland,,,0,
20001567,1567,,Grenada Street - Reilly Avenue Reserve,"196 Grenada Street, Mount Maunganui",-37.6813955,176.239183,BOP00_1A,,0,,Pacific/Auckland,,,0,
20001568,1568,,Doncaster Drive - Fronting 140,"140 Doncaster Drive, Papamoa Beach, Papamoa",-37.71034805,176.2996949,BOP00_1A,,0,,Pacific/Auckland,,,0,
20001569,1569,,Parton Road - Enterprise Drive,"19/60 Parton Road, Papamoa Beach, Papamoa",-37.71052668,176.314618,BOP00_1A,,0,,Pacific/Auckland,,,0,
20001570,1570,,Aquinas College,"185 Pyes Pa Road, Pyes Pa, Tauranga",-37.751889,176.121228,BOP00_1A,,0,,Pacific/Auckland,,,0,
20001571,1571,,Condor Drive - The Boulevard,"73 Condor Drive, Pyes Pa, Tauranga",-37.7468128279497,176.131538995757,BOP00_1A,,0,,Pacific/Auckland,,,0,
20001572,1572,,Inverness Drive - Veda Place,"56 Inverness Drive, Pyes Pa, Tauranga",-37.748059639667,176.12601775614,BOP00_1A,,0,,Pacific/Auckland,,,0,
20001573,1573,,Lakes Boulevard - Opposite Boulder Lane,"185 Lakes Boulevard, Pyes Pa, Tauranga - Opposite Boulder Lane",-37.7523335224674,176.104337241992,BOP00_1A,,0,,Pacific/Auckland,,,0,
20001574,1574,,Tauranga Crossing,"2 Taurikura Drive, Tauriko, Tauranga",-37.7393080971331,176.104156420129,BOP00_1A,,0,,Pacific/Auckland,,,0,
20001583,1583,,Corinna Street - Arawata Avenue,"12 Arawata Avenue, Welcome Bay, Tauranga",-37.72608973108436,176.1983211475104,BOP00_1A,,0,,Pacific/Auckland,,,0,
20001587,1587,,Bayfair Drive - Claridge Place,"3A Bayfair Drive, Mount Maunganui",-37.67936183,176.2114439,BOP00_1A,,0,,Pacific/Auckland,,,0,
20001589,1589,,Beaumaris Boulevard - Bethlehem Heights,"112 Beaumaris Boulevard, Bethlehem, Tauranga",-37.69685655,176.1212063,BOP00_1A,,0,,Pacific/Auckland,,,0,
20001590,1590,,Bethlehem College,"24 Elder Lane, Bethlehem, Tauranga",-37.7054967,176.1108082,BOP00_1A,,0,,Pacific/Auckland,,,0,
20001596,1596,,Cambridge Road - Fronting 253,"253 Cambridge Road, Bethlehem, Tauranga",-37.711338,176.1197857,BOP00_1A,,0,,Pacific/Auckland,,,0,
20001602,1602,,Cambridge Road - Bethlehem Views,"186 Cambridge Road, Bethlehem, Tauranga",-37.70385572,176.1276048,BOP00_1A,,0,,Pacific/Auckland,,,0,
20001606,1606,,Cambridge Road - Kelston Way,"390 Cambridge Road, Tauriko, Tauranga",-37.72249597230299,176.10952757598972,BOP00_1A,,0,,Pacific/Auckland,,,0,
20001625,1625,,Cameron Road - Countdown Supermarket,"640 Cameron Road, Tauranga South, Tauranga",-37.70075119,176.1571369,BOP00_1A,,0,,Pacific/Auckland,,,0,
20001635,1635,,Carmichael Road - Tall Oaks Way,"97 Carmichael Road, Bethlehem, Tauranga",-37.68937664,176.108939,BOP00_1A,,0,,Pacific/Auckland,,,0,
20001655,1655,,Concord Avenue,"77A Concord Avenue, Mount Maunganui",-37.66845695,176.2241439,BOP00_1A,,0,,Pacific/Auckland,,,0,
20001671,1671,,Domain Road - Papamoa Beach Road,"2 Domain Road, Papamoa Beach, Papamoa",-37.6976923075184,176.28470679861,BOP00_1A,,0,,Pacific/Auckland,,,0,
20001672,1672,,Dickson Road - Opposite Allan Place,"58 Dickson Road, Papamoa Beach, Papamoa",-37.70045819597,176.289346969583,BOP00_1A,,0,,Pacific/Auckland,,,0,
20001676,1676,,Domain Road - Pacific Cove Drive,"2 Pacific Cove Drive, Papamoa Beach, Papamoa",-37.70577662,176.2846856,BOP00_1A,,0,,Pacific/Auckland,,,0,
20001682,1682,,Emerald Shores Drive - Nautilus Drive,"11 Emerald Shores Drive, Papamoa Beach, Papamoa",-37.7224721466089,176.351009534722,BOP00_1A,,0,,Pacific/Auckland,,,0,
20001685,1685,,Fifteenth Avenue - Devonport Road - East,"167 Fifteenth Avenue, Tauranga South, Tauranga",-37.7054699920858,176.156937052616,BOP00_1A,,0,,Pacific/Auckland,,,0,
20001693,1693,,Fraser Street - Kesteven Avenue,"417 Fraser Street, Parkvale, Tauranga",-37.7211195252224,176.145328327528,BOP00_1A,,0,,Pacific/Auckland,,,0,
20001694,1694,,Fraser Street - Waimapu Street,"566 Fraser Street, Greerton, Tauranga",-37.7284599561879,176.140946336493,BOP00_1A,,0,,Pacific/Auckland,,,0,
20001695,1695,,Fraser Street - Thirteenth Avenue - South,"68 Fraser Street, Tauranga South, Tauranga",-37.70473600337058,176.16119996319748,BOP00_1A,,0,,Pacific/Auckland,,,0,
20001702,1702,,Girven Road - Shops,"73 Girven Road, Mount Maunganui",-37.67307148,176.2305867,BOP00_1A,,0,,Pacific/Auckland,,,0,
20001703,1703,,Girven Road - Opposite Shops,"78 Girven Road, Mount Maunganui",-37.67314635,176.2307017,BOP00_1A,,0,,Pacific/Auckland,,,0,
20001725,1725,,Grenada Street - Sunrise Avenue,"241 Grenada Street, Mount Maunganui",-37.6823358196275,176.241593159376,BOP00_1A,,0,,Pacific/Auckland,,,0,
20001726,1726,,Grenada Street - Aranui Drive,"583 Grenada Street, Papamoa Beach, Papamoa",-37.68690063234306,176.249762743681,BOP00_1A,,0,,Pacific/Auckland,,,0,
20001727,1727,,555 Grenada Street - Coast Boulevard,"555 Grenada Street, Papamoa Beach, Papamoa",-37.68543,176.248663,BOP00_1A,,0,,Pacific/Auckland,,,0,
20001728,1728,,Hairini Street,"1 Hairini Street, Hairini, Tauranga",-37.72403836,176.166896,BOP00_1A,,0,,Pacific/Auckland,,,0,
20001743,1743,,Hollister Lane - Brackenburn Drive,"48 Hollister Lane, Ohauiti",-37.7422396,176.1537974,BOP00_1A,,0,,Pacific/Auckland,,,0,
20001744,1744,,Hollister Lane,"96 Hollister Lane, Ohauiti",-37.7442595,176.1536121,BOP00_1A,,0,,Pacific/Auckland,,,0,
20001748,1748,,James Cook Drive - Victory Street,"74 James Cook Drive, Welcome Bay, Tauranga",-37.72690967472589,176.1855030744428,BOP00_1A,,0,,Pacific/Auckland,,,0,
20001749,1749,,Welcome Bay Road - Faith Bible College,"R/759 Welcome Bay Road, Waitao",-37.7184176363778,176.241583320591,BOP00_1A,,0,,Pacific/Auckland,,,0,
20001750,1750,,Welcome Bay Road - Te Puke Highway,"R/1222 Welcome Bay Road, Papamoa",-37.7237168049809,176.284223911889,BOP00_1A,,0,,Pacific/Auckland,,,0,
20001757,1757,,Kiteroa Street - Greerton Aquatic Centre,"8 Kiteroa Street, Greerton, Tauranga",-37.73173391,176.1325221,BOP00_1A,,0,,Pacific/Auckland,,,0,
20001760,1760,,Lakes Boulevard - Opposite Caldera Crescent,"43 Bridgewater Way, Pyes Pa, Tauranga",-37.7397320752354,176.109122122596,BOP00_1A,,0,,Pacific/Auckland,,,0,
20001761,1761,,Lakeview Quay,"17 Lakeview Quay, Pyes Pa, Tauranga",-37.74366329057456,176.10902925232483,BOP00_1A,,0,,Pacific/Auckland,,,0,
20001767,1767,,Levers Road - Matua Park,"110 Levers Road, Matua, Tauranga",-37.6652841846059,176.132634247394,BOP00_1A,,0,,Pacific/Auckland,,,0,
20001768,1768,,Ohauiti Rd -  Welcome bay Rd - Stand A,"12 Sycamore Court, Hairini, Tauranga",-37.72840310277894,176.1676276724624,BOP00_1A,,0,,Pacific/Auckland,,,0,
20001769,1769,,Ohauiti Rd - Welcome Bay Rd - Stand B,"12 Sycamore Court, Hairini, Tauranga",-37.7276630619398,176.168457894186,BOP00_1A,,0,,Pacific/Auckland,,,0,
20001776,1776,,Maihi Crescent,"17 Maihi Crescent, Maungatapu, Tauranga",-37.71408343,176.1869422,BOP00_1A,,0,,Pacific/Auckland,,,0,
20001782,1782,,Marine Parade - Sutherland Avenue,"96 Marine Parade, Mount Maunganui",-37.642985967031,176.19339441485,BOP00_1A,,0,,Pacific/Auckland,,,0,
20001783,1783,,Marine Parade - Tay Street,"148A Marine Parade, Mount Maunganui",-37.6467005971135,176.198171282893,BOP00_1A,,0,,Pacific/Auckland,,,0,
20001784,1784,,Marine Parade - Clyde Street,"178 Marine Parade, Mount Maunganui",-37.64981961,176.2021402,BOP00_1A,,0,,Pacific/Auckland,,,0,
20001785,1785,,Marine Parade - Grove Avenue,"73 Marine Parade, Mount Maunganui",-37.6400710865404,176.190363308184,BOP00_1A,,0,,Pacific/Auckland,,,0,
20001792,1792,,Maungatapu Primary School,"164 Maungatapu Road, Maungatapu, Tauranga",-37.72188312,176.1736588,BOP00_1A,,0,,Pacific/Auckland,,,0,
20001796,1796,,Miles Lane (Fasching Lane Stop),"48 Miles Lane, Tauriko, Tauranga",-37.723896358796,176.10237504665,BOP00_1A,,0,,Pacific/Auckland,,,0,
20001807,1807,,Moffat Road - Moffat Way,"176 Moffat Road, Bethlehem, Tauranga",-37.69825852,176.1127535,BOP00_1A,,0,,Pacific/Auckland,,,0,
20001809,1809,,Mount Maunganui College,"565 Maunganui Road, Tauranga",-37.662431632396306,176.20624478106498,BOP00_1A,,0,,Pacific/Auckland,,,0,
20001810,1810,,Mount Maunganui Intermediate,"22C Links Avenue, Mount Maunganui",-37.66585260825138,176.21091764521503,BOP00_1A,,0,,Pacific/Auckland,,,0,
20001811,1811,,Ngatai Road - Short Street,"188 Ngatai Road, Otumoetai, Tauranga",-37.66664985,176.1466595,BOP00_1A,,0,,Pacific/Auckland,,,0,
20001812,1812,,Ngatai Road - Tauranga Bridge Club,"246 Ngatai Road, Otumoetai, Tauranga",-37.6656775,176.1417359,BOP00_1A,,0,,Pacific/Auckland,,,0,
20001817,1817,,Oceanbeach Road  - Surf Road,"113A Oceanbeach Road, Mount Maunganui",-37.6599576436061,176.215100447728,BOP00_1A,,0,,Pacific/Auckland,,,0,
20001818,1818,,Oceanbeach Road,"156 Oceanbeach Road, Mount Maunganui",-37.6628648148376,176.219164296811,BOP00_1A,,0,,Pacific/Auckland,,,0,
20001819,1819,,Oceanbeach Road - Concord Avenue,"244 Oceanbeach Road, Mount Maunganui",-37.6672187494029,176.22524804618462,BOP00_1A,,0,,Pacific/Auckland,,,0,
20001820,1820,,Oceanbeach Road - Fronting 177,"177 Oceanbeach Road, Mount Maunganui",-37.6631602836716,176.219855185444,BOP00_1A,,0,,Pacific/Auckland,,,0,
20001822,1822,,Maranui Street - Fronting 49a,"49A Maranui Street, Mount Maunganui",-37.6750870481076,176.237275051858,BOP00_1A,,0,,Pacific/Auckland,,,0,
20001823,1823,,Oceanbeach Road - Berescourt Reserve,"224 Oceanbeach Road, Mount Maunganui",-37.6662744229948,176.223420114507,BOP00_1A,,0,,Pacific/Auckland,,,0,
20001824,1824,,Maranui Street - Yale St,"77  Maranui Street, Mount Maunganui",-37.6764519141206,176.239554686565,BOP00_1A,,0,,Pacific/Auckland,,,0,
20001826,1826,,Oceanbeach Road - Girven Road,"338 Oceanbeach Road, Mount Maunganui",-37.671440659275,176.23191989891,BOP00_1A,,0,,Pacific/Auckland,,,0,
20001827,1827,,Oceanview Road  - Fronting 128,"128 Oceanview Road, Mount Maunganui",-37.64625551,176.194089,BOP00_1A,,0,,Pacific/Auckland,,,0,
20001828,1828,,Oceanview Road  - Terrace Avenue,"123A Oceanview Road, Mount Maunganui",-37.6456849,176.1937025,BOP00_1A,,0,,Pacific/Auckland,,,0,
20001829,1829,,Oceanview Road - Sutherland Avenue - West,"80 Oceanview Road, Mount Maunganui",-37.64325256,176.1908376,BOP00_1A,,0,,Pacific/Auckland,,,0,
20001830,1830,,Oceanview Road - Sutherland Avenue - East,"89 Oceanview Road, Mount Maunganui",-37.64352877,176.1913671,BOP00_1A,,0,,Pacific/Auckland,,,0,
20001833,1833,,Papamoa Beach Road - Te Ara Place,"254 Papamoa Beach Road, Papamoa Beach, Papamoa",-37.6851480938583,176.257028641891,BOP00_1A,,0,,Pacific/Auckland,,,0,
20001835,1835,,Cameron Road - Te Puke Intermediate,"132 Cameron Road, Te Puke",-37.796076211527,176.315976579867,BOP00_2A,,0,,Pacific/Auckland,,,0,
20001836,1836,,Cameron Road - Tui Street,"Opposite 75A Cameron Road, Te Puke",-37.7890014278605,176.317014722444,BOP00_2A,,0,,Pacific/Auckland,,,0,
20001837,1837,,Macloughlin Drive - Fronting No. 21,"21 MacLoughlin Drive, Te Puke",-37.783552113602035,176.30484873013984,BOP00_2A,,0,,Pacific/Auckland,,,0,
20001838,1838,,Number Three Road - Te Puke Highway,"1 No 3 Road, Te Puke",-37.7763686486583,176.308516119323,BOP00_2A,,0,,Pacific/Auckland,,,0,
20001841,1841,,Boucher Avenue - Hookey Drive,"96A Boucher Avenue, Te Puke",-37.79424149921844,176.32350193947218,BOP00_2A,,0,,Pacific/Auckland,,,0,
20001842,1842,,Boucher Avenue - Randell Place,"94 Boucher Avenue, Te Puke",-37.79423580782291,176.32365512216813,BOP00_2A,,0,,Pacific/Auckland,,,0,
20001845,1845,,Osprey Drive - Waitaha Road,"130 Osprey Drive, Welcome Bay, Tauranga",-37.7334462165081,176.190351332098,BOP00_1A,,0,,Pacific/Auckland,,,0,
20001847,1847,,Osprey Drive - Pelorus Street,"72 Osprey Drive, Welcome Bay, Tauranga",-37.73474619,176.1862733,BOP00_1A,,0,,Pacific/Auckland,,,0,
20001849,1849,,Osprey Drive - Selwyn Park,"18 Osprey Drive, Welcome Bay, Tauranga",-37.73115095,176.1845272,BOP00_1A,,0,,Pacific/Auckland,,,0,
20001852,1852,,Otumoetai Intermediate School,"5 Charles Street, Bellevue, Tauranga",-37.67562194,176.1293757,BOP00_1A,,0,,Pacific/Auckland,,,0,
20001884,1884,,Papamoa Beach Road - Opposite Evans Road,"314B Papamoa Beach Road, Papamoa Beach, Papamoa",-37.6879030555539,176.262701933854,BOP00_1A,,0,,Pacific/Auckland,,,0,
20001886,1886,,Papamoa Beach Road - Evans Road,"314A Papamoa Beach Road, Papamoa Beach, Papamoa",-37.6878593858701,176.262442740207,BOP00_1A,,0,,Pacific/Auckland,,,0,
20001887,1887,,Papamoa Beach Road - Bermuda Drive,"28 Mauritius Key, Papamoa Beach, Papamoa",-37.6907776586298,176.268389234237,BOP00_1A,,0,,Pacific/Auckland,,,0,
20001896,1896,,Papamoa College,"168 Doncaster Drive, Papamoa Beach, Papamoa",-37.71184714,176.3008133,BOP00_1A,,0,,Pacific/Auckland,,,0,
20001915,1915,,Cambridge Road - River Oaks Drive,"2 River Oaks Drive, Tauriko, Tauranga",-37.73042071,176.1030152,BOP00_1A,,0,,Pacific/Auckland,,,0,
20001919,1919,,Rowesdale Drive - Autumn Place,"79 Rowesdale Drive, Ohauiti",-37.74981170640513,176.1586057292044,BOP00_1A,,0,,Pacific/Auckland,,,0,
20001921,1921,,Russley Drive - Ngamotu Place,"16 Russley Drive, Mount Maunganui",-37.67830448,176.2187431,BOP00_1A,,0,,Pacific/Auckland,,,0,
20001922,1922,,Russley Drive - Laburnum Glen,"58 Russley Drive, Mount Maunganui",-37.68038543,176.2162268,BOP00_1A,,0,,Pacific/Auckland,,,0,
20001941,1941,,Thirteenth Avenue - Tauranga Boys' College,"151 Thirteenth Avenue, Tauranga South, Tauranga",-37.70169471,176.1575151,BOP00_1A,,0,,Pacific/Auckland,,,0,
20001942,1942,,Tauranga Girls' College,"32 Twentysecond Avenue, Gate Pa, Tauranga",-37.71394056,176.1442476,BOP00_1A,,0,,Pacific/Auckland,,,0,
20001943,1943,,Tauranga Intermediate School,"30 Eighteenth Avenue, Tauranga South, Tauranga",-37.71214654,176.1560019,BOP00_1A,,0,,Pacific/Auckland,,,0,
20001945,1945,,Tay Street  - Valley Road,"24 Tay Street, Mount Maunganui",-37.64868927,176.1961049,BOP00_1A,,0,,Pacific/Auckland,,,0,
20001949,1949,,Te Hono Street - Fronting No. 103,"103 Te Hono Street, Maungatapu, Tauranga",-37.71264065,176.1885759,BOP00_1A,,0,,Pacific/Auckland,,,0,
20001952,1952,,Te Hono Street -  Te Wati  Street,"2 Te Wati Street, Maungatapu, Tauranga",-37.71414172,176.1850856,BOP00_1A,,0,,Pacific/Auckland,,,0,
20001959,1959,,St Mary's Primary School,"11 Thirteenth Avenue, Tauranga South, Tauranga",-37.70660175,176.1657673,BOP00_1A,,0,,Pacific/Auckland,,,0,
20001974,1974,,Valley Road - Dee Street,"129 Valley Road, Mount Maunganui",-37.65446298,176.203712,BOP00_1A,,0,,Pacific/Auckland,,,0,
20001976,1976,,Valley Road - Tweed Street - East,"103 Valley Road, Mount Maunganui",-37.65285984,176.2013287,BOP00_1A,,0,,Pacific/Auckland,,,0,
20001977,1977,,Valley Road - Tweed Street,"108A Valley Road, Mount Maunganui",-37.65288007,176.2010792,BOP00_1A,,0,,Pacific/Auckland,,,0,
20001978,1978,,Valley Road - Clyde Street - East,"61A Valley Road, Mount Maunganui",-37.6506419,176.1977079,BOP00_1A,,0,,Pacific/Auckland,,,0,
20001979,1979,,Valley Road - Clyde Street,"72B Valley Road, Mount Maunganui",-37.6511117,176.1981408,BOP00_1A,,0,,Pacific/Auckland,,,0,
20001981,1981,,Victory Street - Archilles Crescent,"43 Victory Street, Welcome Bay, Tauranga",-37.7287139237413,176.184882641741,BOP00_1A,,0,,Pacific/Auckland,,,0,
20001983,1983,,Victory Street - Cumberland Crescent,"81 Victory Street, Welcome Bay, Tauranga",-37.73008597,176.18392,BOP00_1A,,0,,Pacific/Auckland,,,0,
20001986,1986,,Waihi Road - Judea Road,"108 Waihi Road, Judea, Tauranga",-37.69601584,176.1450575,BOP00_1A,,0,,Pacific/Auckland,,,0,
20001988,1988,,Waihi Road - Bell Street,"268 Waihi Road, Judea, Tauranga",-37.69624454,176.1351564,BOP00_1A,,0,,Pacific/Auckland,,,0,
20001991,1991,,Waihi Road - Montgomery Road,"75 Waihi Road, Judea, Tauranga",-37.6968370720556,176.148394778997,BOP00_1A,,0,,Pacific/Auckland,,,0,
20001994,1994,,Waikite Road - Fronting No. 52,"52 Waikite Road, Welcome Bay, Tauranga",-37.7318327548645,176.201925715323,BOP00_1A,,0,,Pacific/Auckland,,,0,
20001995,1995,,Ballintoy Park Drive - Waikite Road,"5 Ballintoy Park Drive, Welcome Bay, Tauranga",-37.7423167858569,176.203090527555,BOP00_1A,,0,,Pacific/Auckland,,,0,
20001996,1996,,Waikite Road - Holcombrooke Lane,"136 Waikite Road, Welcome Bay, Tauranga",-37.7395408061962,176.20228882511,BOP00_1A,,0,,Pacific/Auckland,,,0,
20001997,1997,,Waikite Road - Oceana Drive,"1 Oceana Drive, Welcome Bay, Tauranga",-37.7344382426937,176.201330138945,BOP00_1A,,0,,Pacific/Auckland,,,0,
20001998,1998,,Wairakei Avenue - Shaun Close,"150 Wairakei Avenue, Papamoa Beach, Papamoa",-37.72152462,176.3452892,BOP00_1A,,0,,Pacific/Auckland,,,0,
20002000,2000,,Wairakei Avenue - Millie Court,"173 Wairakei Avenue, Papamoa Beach, Papamoa",-37.72288925,176.3485748,BOP00_1A,,0,,Pacific/Auckland,,,0,
20002004,2004,,Waitaha Road - Village Park Drive,"111 Waitaha Road, Welcome Bay, Tauranga",-37.72926643,176.1908678,BOP00_1A,,0,,Pacific/Auckland,,,0,
20002015,2015,,Welcome Bay Road - Oteki Park Drive,"356 Welcome Bay Road, Welcome Bay, Tauranga",-37.72769132,176.1988168,BOP00_1A,,0,,Pacific/Auckland,,,0,
20002019,2019,,Tauranga Primary - Arundel Street,"22 Arundel Street, Tauranga",-37.691953706814324,176.16515764365897,BOP00_1A,,0,,Pacific/Auckland,,,0,
20002024,2024,,Anne Street - Ohope Store,"311 Harbour Road, Ohope",-37.982097140274,177.10487242782,BOP00_6A,,0,,Pacific/Auckland,,,0,
20002025,2025,,Awatapu Causeway,"Awatapu Drive, Whakatane",-37.96882360664,176.97402021914,BOP00_6A,,0,,Pacific/Auckland,,,0,
20002026,2026,,Awatapu Causeway - Westbound,"Awatapu Drive, Whakatane",-37.968834617343,176.97379454241,BOP00_6A,,0,,Pacific/Auckland,,,0,
20002027,2027,,Awatapu Drive - Fronting No. 111,"111 Awatapu Drive, Whakatane",-37.965704773096,176.96234833867,BOP00_6A,,0,,Pacific/Auckland,,,0,
20002028,2028,,Awatapu Drive - Fronting No. 23,"23 Awatapu Drive, Whakatane",-37.967678976795,176.97058541928,BOP00_6A,,0,,Pacific/Auckland,,,0,
20002029,2029,,Awatapu Drive - Reserve,"46a Awatapu Drive, Whakatane",-37.9670007706971,176.966863468666,BOP00_6A,,0,,Pacific/Auckland,,,0,
20002030,2030,,Awatapu Drive - Farnworth,"55 Awatapu Drive, Whakatane",-37.96709271427741,176.96684860890554,BOP00_6A,,0,,Pacific/Auckland,,,0,
20002031,2031,,Awatapu Drive - Edgewater Grove,"23 Awatapu Drive, Whakatane",-37.967590740949,176.97060303363,BOP00_6A,,0,,Pacific/Auckland,,,0,
20002032,2032,,Domain Road - Fronting No. 83,"83 Domain Road, Whakatane",-37.958549243563,176.98455425929,BOP00_6A,,0,,Pacific/Auckland,,,0,
20002033,2033,,Fenton Mill Rd - Putauaki School,"76 Fenton Mill Road, Kawerau",-38.090011743243,176.68499055724,BOP00_4C,,0,,Pacific/Auckland,,,0,
20002034,2034,,Goulstone Road - Fronting No. 74,"74A Goulstone Road, Whakatane",-37.962652465647,176.98319978722,BOP00_6A,,0,,Pacific/Auckland,,,0,
20002035,2035,,Goulstone Road - Fronting No. 79,"79 Goulstone Road, Whakatane",-37.962728304413,176.98279132514,BOP00_6A,,0,,Pacific/Auckland,,,0,
20002036,2036,,Goulstone Road - Fronting No. 15 (Rex Morpeth Park),"15 Goulstone Road, Whakatane",-37.963392,176.990211,BOP00_6A,,0,,Pacific/Auckland,,,0,
20002037,2037,,Goulstone Road - Rex Morpeth Park,"7 Goulstone Road, Whakatane",-37.963225745639,176.99115395027,BOP00_6A,,0,,Pacific/Auckland,,,0,
20002038,2038,,Harbour Road - Fronting No. 19,"19 Harbour Road, Ohope",-37.975157443255,177.07099311399,BOP00_6A,,0,,Pacific/Auckland,,,0,
20002039,2039,,Harbour Road - Fronting No. 309 (Ohope Store),"311 Harbour Road, Ohope",-37.982150059376,177.10469559311,BOP00_6A,,0,,Pacific/Auckland,,,0,
20002040,2040,,Harbour Road - Fronting No. 340 (Port Ohope Wharf),"341 Harbour Road, Ohope",-37.982585351056,177.10812765776,BOP00_6A,,0,,Pacific/Auckland,,,0,
20002041,2041,,Harbour Road - Fronting No. 345 (Port Ohope Wharf),"343 Harbour Road, Ohope",-37.982609482184,177.1086047921,BOP00_6A,,0,,Pacific/Auckland,,,0,
20002042,2042,,James Street - Fronting No. 191,"191 James Street, Whakatane",-37.960984897964,176.96195470102,BOP00_6A,,0,,Pacific/Auckland,,,0,
20002043,2043,,James Street - Fronting No. 192,"192 James Street, Whakatane",-37.960888306805,176.96214184388,BOP00_6A,,0,,Pacific/Auckland,,,0,
20002044,2044,,James Street - Fronting No. 55,"55 James Street, Whakatane",-37.961258794537,176.97588085174,BOP00_6A,,0,,Pacific/Auckland,,,0,
20002045,2045,,James Street - Fronting No. 62,"62 James Street, Whakatane",-37.96106951467,176.9752533365,BOP00_6A,,0,,Pacific/Auckland,,,0,
20002046,2046,,James Street - Fronting No. 9,"11 James Street, Whakatane",-37.961431198843,176.9810611135,BOP00_6A,,0,,Pacific/Auckland,,,0,
20002047,2047,,James Street - Opposite Intermediate,"110 James Street, Whakatane",-37.960937390164,176.97031310919,BOP00_6A,,0,,Pacific/Auckland,,,0,
20002048,2048,,James Street Intermediate,"105 James Street, Whakatane",-37.960996056902,176.97056146127,BOP00_6A,,0,,Pacific/Auckland,,,0,
20002051,2051,,King Street - Fronting No. 8,"8A King Street, Whakatane",-37.959062738109,176.98210648725,BOP00_6A,,0,,Pacific/Auckland,,,0,
20002052,2052,,Ocean Road - Fronting No. 356,"356 Ocean Road, Ohope",-37.980947063822,177.10446085807,BOP00_6A,,0,,Pacific/Auckland,,,0,
20002053,2053,,Pohutukawa Ave - Ohope Beach School,"170 Pohutukawa Avenue, Ohope",-37.969320904839,177.0492879053,BOP00_6A,,0,,Pacific/Auckland,,,0,
20002054,2054,,Pohutukawa Avenue - Fronting No. 169,"169 Pohutukawa Avenue, Ohope",-37.968628272065,177.0482710304,BOP00_6A,,0,,Pacific/Auckland,,,0,
20002055,2055,,Pohutukawa Avenue - Fronting No. 295,"295 Pohutukawa Avenue, Ohope",-37.973557684867,177.06417730618,BOP00_6A,,0,,Pacific/Auckland,,,0,
20002056,2056,,River Road - Fronting No. 202,"202 River Road, Kawerau",-38.0954299,176.70432,BOP00_4C,,0,,Pacific/Auckland,,,0,
20002057,2057,,River Road - Fronting No. 270,"270 River Road, Kawerau",-38.09864022798,176.69975642781,BOP00_4C,,0,,Pacific/Auckland,,,0,
20002058,2058,,River Road - Fronting No. 326,"326 River Road, Kawerau",-38.095680169631,176.69415070213,BOP00_4C,,0,,Pacific/Auckland,,,0,
20002059,2059,,River Road - Fronting No. 376,"376 River Road, Kawerau",-38.090969212938,176.69285078321,BOP00_4C,,0,,Pacific/Auckland,,,0,
20002060,2060,,River Road - Opposite No. 25,"25 River Road, Kawerau",-38.081273943025,176.71045020406,BOP00_4C,,0,,Pacific/Auckland,,,0,
20002061,2061,,State Highway 30 - Fronting No. 36,"38 State Highway 30 Te Teko, Te Teko",-38.036200278065,176.79472438425,BOP00_5A,,0,,Pacific/Auckland,,,0,
20002062,2062,,Stewart Street - Fronting No. 2,"2 Stewart Street, Whakatane",-37.963507041643,176.98158303602,BOP00_6A,,0,,Pacific/Auckland,,,0,
20002063,2063,,Stewart Street - Fronting No. 5,"5 Stewart Street, Whakatane",-37.963587983159,176.98128388924,BOP00_6A,,0,,Pacific/Auckland,,,0,
20002064,2064,,Hinemoa St - Fronting 72,"72 Hinemoa St, Whakatane",-37.96407876314262,176.97417013588097,BOP00_6A,,0,,Pacific/Auckland,,,0,
20002065,2065,,Hinemoa St - Fronting 69,"69 Hinemoa St, Whakatane",-37.96408050813256,176.97425713925412,BOP00_6A,,0,,Pacific/Auckland,,,0,
20002066,2066,,Tarawera High School,"101 River Road, Kawerau",-38.08766549634,176.70862449921,BOP00_4C,,0,,Pacific/Auckland,,,0,
20002067,2067,,Te Akau Street - Fronting No. 4,"2 Te Akau Street, Ohope",-37.973026507665,177.06399612116,BOP00_6A,,0,,Pacific/Auckland,,,0,
20002068,2068,,Te Taiawatea Drive,"34 Te Taiawatea Drive, Ohope",-37.9855116,177.1178847,BOP00_6A,,0,,Pacific/Auckland,,,0,
20002069,2069,,Te Puke - Commerce Lane,"35 Commerce Lane, Te Puke",-37.7842621722285,176.328678079727,BOP00_2A,,0,,Pacific/Auckland,,,0,
20002070,2070,,Beach Road - Maketu,"3 Beach Road, Maketu",-37.75847919787307,176.4528459781933,BOP00_2A,,0,,Pacific/Auckland,,,0,
20002071,2071,,Peter Lippa Drive - Fronting No 62,"62 Peter Lippa Drive, Kawerau",-38.0960585318238,176.678851228859,BOP00_4C,,0,,Pacific/Auckland,,,0,
20002072,2072,,Valley Road - Fronting No 147,"147 Valley Road, Kawerau",-38.092436277527845,176.67834438466087,BOP00_4C,,0,,Pacific/Auckland,,,0,
20002073,2073,,Tamarangi Drive - Short Street,"Tamarangi Drive, Kawerau",-38.0840230292842,176.695306160089,BOP00_4C,,0,,Pacific/Auckland,,,0,
20002074,2074,,Boon Street  - Fronting No. 32,"26 Boon Street, Whakatane",-37.952739542657,176.99469110126,BOP00_6A,,0,,Pacific/Auckland,,,0,
20002075,2075,,Newall Street - Fronting No 58,"58 Newall Street, Kawerau",-38.0820399,176.7066479,BOP00_4C,,0,,Pacific/Auckland,,,0,
20002076,2076,,Hamurana Road - McDonnell Street,"20 Hamurana Road, Omokoroa",-37.6336915096079,176.044690918152,BOP00_2B,,0,,Pacific/Auckland,,,0,
20002077,2077,,Lexham Park (Binnie Rd),"8 Binnie Road, Katikati",-37.5458058827924,175.924288588134,BOP00_3B,,0,,Pacific/Auckland,,,0,
20002078,2078,,Waihi Beach Surf Club,"7B Beach Road, Waihi Beach",-37.3970821438763,175.937056638562,BOP00_4B,,0,,Pacific/Auckland,,,0,
20002079,2079,,Waihi Beach Community Centre,"106 Beach Road, Waihi Beach",-37.4064276,175.9375078,BOP00_4B,,0,,Pacific/Auckland,,,0,
20002081,2081,,Waihi Beach Information Centre,"26 Wilson Road, Waihi Beach",-37.411486084793,175.94234462414,BOP00_4B,,0,,Pacific/Auckland,,,0,
20002082,2082,,Katikati Information Centre,"31 Main Road, Katikati",-37.5536790160221,175.917205293917,BOP00_3B,,0,,Pacific/Auckland,,,0,
20002083,2083,,Seaforth Road - Emerton Road,"205 Seaforth Road, Waihi Beach",-37.428917101903,175.95802654875,BOP00_4B,,0,,Pacific/Auckland,,,0,
20002084,2084,,James St - Fronting No.12,"12 James Street, Whakatane",-37.9613562863775,176.981307638945,BOP00_6A,,0,,Pacific/Auckland,,,0,
20002085,2085,,Athenree Road - Pohutukawa Drive,"52 Athenree Road, Athenree, Waihi Beach",-37.4451807,175.96221906,BOP00_4B,,0,,Pacific/Auckland,,,0,
20002089,2089,,Katikati - Opposite Information Centre,"33 Main Road, Katikati",-37.5538976015263,175.917287493673,BOP00_3B,,0,,Pacific/Auckland,,,0,
20002090,2090,,Te Puna - 4 Square,"626 State Highway 2, Te Puna",-37.696037772951,176.07170517871,BOP00_1A,,0,,Pacific/Auckland,,,0,
20002091,2091,,Katikati - Countdown,"131 Main Road, Katikati",-37.560026,175.915778,BOP00_3B,,0,,Pacific/Auckland,,,0,
20002092,2092,,Te Puna North,"626 State Highway 2, Te Puna",-37.6960908701912,176.071885253967,BOP00_1A,,0,,Pacific/Auckland,,,0,
20002093,2093,,Katikati Medical Centre,"4 Clive Road, Katikati",-37.5527138,175.9268089,BOP00_3B,,0,,Pacific/Auckland,,,0,
20002094,2094,,Bethlehem Town Centre,"237 State Highway 2, Bethlehem, Tauranga",-37.695514150542,176.10916322779,BOP00_1A,,0,,Pacific/Auckland,,,0,
20002095,2095,,Waihi - New World,"37 Kenny Street, Waihi",-37.3931158,175.8396445,BOP00_4B,,0,,Pacific/Auckland,,,0,
20002096,2096,,Bethlehem North,"228 State Highway 2, Bethlehem, Tauranga",-37.69566175323886,176.10879855092605,BOP00_1A,,0,,Pacific/Auckland,,,0,
20002097,2097,,Waihi - Outside I-Site,"116 Seddon Street, Waihi",-37.3898234,175.8436818,BOP00_4B,,0,,Pacific/Auckland,,,0,
20002098,2098,,Quay Street - Opposite 33 Quay Street,"35 Quay Street, Whakatane",-37.949947550516,176.9988073855,BOP00_6A,,0,,Pacific/Auckland,,,0,
20002099,2099,,Whakatane Hospital (39 Stewart Street),"39 Stewart Street, Whakatane",-37.9635856684397,176.978038195106,BOP00_6A,,0,,Pacific/Auckland,,,0,
20002100,2100,,Pohutukawa Avenue - Opposite Ohope Shops,"34A Pohutukawa Avenue, Ohope",-37.964588335571,177.03649416164,BOP00_6A,,0,,Pacific/Auckland,,,0,
20002101,2101,,Pohutukawa Avenue - Ohope Shops,"27 Pohutukawa Avenue, Ohope",-37.964569335725,177.03674523195,BOP00_6A,,0,,Pacific/Auckland,,,0,
20002102,2102,,Ohope Petrol Station (59 Pohutakawa Ave),"59 Pohutukawa Avenue, Ohope",-37.965291410498,177.038879961377,BOP00_6A,,0,,Pacific/Auckland,,,0,
20002103,2103,,Pohutakawa Ave - Ohope Petrol Station,"62 Pohutukawa Avenue, Ohope",-37.965483839711,177.03907978595,BOP00_6A,,0,,Pacific/Auckland,,,0,
20002106,2106,,Awatapu Drive - Fronting No. 84,"84 Awatapu Drive, Whakatane",-37.965584912063,176.96258184624,BOP00_6A,,0,,Pacific/Auckland,,,0,
20002107,2107,,Whakatane Hospital (30 Stewart Street),"30A Stewart Street, Whakatane",-37.9634865680491,176.978874154596,BOP00_6A,,0,,Pacific/Auckland,,,0,
20002108,2108,,St John Street  - Fronting No. 43,"43 St John Street, Opotiki",-38.011916465333,177.28705436138,BOP00_9A,,0,,Pacific/Auckland,,,0,
20002109,2109,,Ruatahuna,"5900 Ruatahuna Road, Ruatahuna",-38.6136883469099,176.958835412025,BOP01_6,,0,,Pacific/Auckland,,,0,
20002110,2110,,Matata - Arawa Street,"37 Arawa Street, Matata",-37.888508652969,176.75861708221,BOP00_5A,,0,,Pacific/Auckland,,,0,
20002111,2111,,"Kutarere (435 SH 2, Kutarere)","203 State Highway 2, Kutarere",-38.046701321795,177.14580329332,BOP00_8A,,0,,Pacific/Auckland,,,0,
20002112,2112,,Moody Place - Fronting No. 7 (Opotiki),"107 St John Street, Opotiki",-38.005051607399,177.28601436612,BOP00_9A,,0,,Pacific/Auckland,,,0,
20002113,2113,,Bridge St Cafe - Opotiki,"79 Bridge Street, Opotiki",-38.012191659796,177.28378256812,BOP00_9A,,0,,Pacific/Auckland,,,0,
20002114,2114,,Valley Road - Fronting No. 39,"38 Valley Road, Kawerau",-38.086106752992,176.68676170321,BOP00_4C,,0,,Pacific/Auckland,,,0,
20002115,2115,,Murupara,"35 Pine Drive, Murupara",-38.4573255327198,176.704980838653,BOP01_4,,0,,Pacific/Auckland,,,0,
20002116,2116,,Minginui,"16 Matai Street, Minginui",-38.6393150613996,176.732094797622,BOP01_5,,0,,Pacific/Auckland,,,0,
20002117,2117,,Kaingaroa,"18 Daniel Street, Kaingaroa Forest",-38.4090329543472,176.560588957641,BOP01_3,,0,,Pacific/Auckland,,,0,
20002118,2118,,College Road - Fronting No. 10,"12 College Road, Edgecumbe",-37.9756092,176.8276032,BOP00_5A,,0,,Pacific/Auckland,,,0,
20002119,2119,,Pukehina Beach - Fire Station,"14 Pukehina Parade, Pukehina",-37.789296307835,176.52762021327,BOP00_3A,,0,,Pacific/Auckland,,,0,
20002120,2120,,Paengaroa,"5 Old Coach Road, Paengaroa",-37.822198721513,176.41171504729,BOP00_3A,,0,,Pacific/Auckland,,,0,
20002121,2121,,Kawerau Information Centre,"2 Ranfurly Court, Kawerau",-38.0864462776846,176.700328819608,BOP00_4C,,0,,Pacific/Auckland,,,0,
20002122,2122,,Morrison Road - Fronting No. 3,"3 Morrison Road, Taneatua",-38.064254264374,177.00396717487,BOP00_6A,,0,,Pacific/Auckland,,,0,
20002123,2123,,Tuhoe Street - Fronting No. 50,"56 Tuhoe Street, Taneatua",-38.065346441563,177.0036350841,BOP00_6A,,0,,Pacific/Auckland,,,0,
20002124,2124,,Waimana - Westbound,"260 Waimana Road, Waimana",-38.1433667948829,177.076315641733,BOP00_7A,,0,,Pacific/Auckland,,,0,
20002125,2125,,Waimana - Eastbound,"267 Waimana Road, Waimana",-38.1433914430911,177.07696612209,BOP00_7A,,0,,Pacific/Auckland,,,0,
20002126,2126,,Tirohanga - Fronting No. 745B State Highway 35,"745B State Highway 35, Tirohanga",-37.98884181796,177.35235004914,BOP02_1,,0,,Pacific/Auckland,,,0,
20002127,2127,,Opape,"1372 State Highway 35, Toatoa",-37.98117186267,177.41951144775,BOP02_2,,0,,Pacific/Auckland,,,0,
20002128,2128,,Torere,"2222 State Highway 35, Torere",-37.950415934539,177.48875972195,BOP02_3,,0,,Pacific/Auckland,,,0,
20002129,2129,,Hawai,"2792 State Highway 35, Hawai",-37.922529330294,177.52645162803,BOP02_4,,0,,Pacific/Auckland,,,0,
20002130,2130,,Maraenui,"3688A State Highway 35, Hawai",-37.874175629743,177.58440266669,BOP02_5,,0,,Pacific/Auckland,,,0,
20002131,2131,,Omaio,"5456 State Highway 35, Omaio",-37.813493754679,177.63295182394,BOP02_7,,0,,Pacific/Auckland,,,0,
20002132,2132,,Whitianga,"4754 State Highway 35, Omaio",-37.839941009973,177.59473142328,BOP02_6,,0,,Pacific/Auckland,,,0,
20002133,2133,,Te Kaha Holiday Park,"6925 State Highway 35, Te Kaha",-37.732012558668,177.68915494708,BOP02_9,,0,,Pacific/Auckland,,,0,
20002134,2134,,Whanarua Bay,"8523 State Highway 35, Waihau Bay",-37.678357823295,177.79613579216,BOP02_11,,0,,Pacific/Auckland,,,0,
20002135,2135,,Papatea,9132 State Highway 35,-37.661830063578,177.84924199345,BOP02_12,,0,,Pacific/Auckland,,,0,
20002136,2136,,Raukokore,8663 State Highway 35,-37.639797647788,177.87875679029,BOP02_13,,0,,Pacific/Auckland,,,0,
20002137,2137,,Waihau Bay,10826 State Highway 35,-37.618806478611,177.91167272093,BOP02_14,,0,,Pacific/Auckland,,,0,
20002138,2138,,Oruaiti Beach,10826 State Highway 35,-37.617891156827,177.94969837434,BOP02_15,,0,,Pacific/Auckland,,,0,
20002139,2139,,Whangaparaoa,"11530A State Highway 35, Cape Runaway",-37.575867049759,177.99796693848,BOP02_16,,0,,Pacific/Auckland,,,0,
20002140,2140,,Te Kaha Schoolhouse Bay,"6994 State Highway 35, Te Kaha",-37.72884450458,177.69371527883,BOP02_10,,0,,Pacific/Auckland,,,0,
20002141,2141,,Potaka,"7162 Te Araroa Road, Hicks Bay",-37.573579807757,178.14268788955,BOP02_17,,0,,Pacific/Auckland,,,0,
20002142,2142,,Waiorore,"6352 State Highway 35, Te Kaha",-37.770799120517,177.67726089549,BOP02_8,,0,,Pacific/Auckland,,,0,
20002143,2143,,Lakes Boulevard - Puhirake Crescent,"310 Lakes Boulevard, Pyes Pa, Tauranga",-37.762528606172,176.10609393562,BOP00_1A,,0,,Pacific/Auckland,,,0,
20002144,2144,,Lakes Boulevard Shops,"Lakes Boulevard, Pyes Pa, Tauranga - Opposite 177",-37.7516692380255,176.104962619063,BOP00_1A,,0,,Pacific/Auckland,,,0,
20002145,2145,,Lakes Boulevard - Orangapani Reserve,"223 Lakes Boulevard, Pyes Pa, Tauranga",-37.7557486135601,176.104030101014,BOP00_1A,,0,,Pacific/Auckland,,,0,
20002147,2147,,Te Puke Intermediate,"126B Cameron Road, Te Puke",-37.7951670027372,176.3163253406202,BOP00_2A,,0,,Pacific/Auckland,,,0,
20002148,2148,,Cameron Road - Opposite Tui St,"75A Cameron Road, Te Puke",-37.788971015442,176.316957828774,BOP00_2A,,0,,Pacific/Auckland,,,0,
20002149,2149,,Macloughlin Drive - The Orchard,"21 MacLoughlin Drive, Te Puke",-37.783576628619706,176.30477783448487,BOP00_2A,,0,,Pacific/Auckland,,,0,
20002150,2150,,Number Three Road - Te Puke Highway,"6 No 3 Road, Te Puke",-37.776258566619,176.3083910374,BOP00_2A,,0,,Pacific/Auckland,,,0,
20002151,2151,,Moore Park 'Park and Ride',"9 Earl Drive, Katikati",-37.558959604769,175.9192140695,BOP00_3B,,0,,Pacific/Auckland,,,0,
20002152,2152,,Opposite Moore Park  'Park and Ride',"9 Earl Drive, Katikati",-37.558994417285,175.91915015521,BOP00_3B,,0,,Pacific/Auckland,,,0,
20002153,2153,,The Boulevard - Livingstone Drive,"168 The Boulevard, Papamoa Beach, Papamoa",-37.724997877206576,176.33994704038417,BOP00_1A,,0,,Pacific/Auckland,,,0,
20002155,2155,,The Boulevard - Harding Reserve,"191 The Boulevard, Papamoa Beach, Papamoa",-37.7251059541913,176.340509191221,BOP00_1A,,0,,Pacific/Auckland,,,0,
20002156,2156,,Palm Springs Boulevard,"70 Palm Springs Boulevard, Papamoa Beach, Papamoa",-37.7176076140309,176.330446082106,BOP00_1A,,0,,Pacific/Auckland,,,0,
20002157,2157,,Palm Springs Boulevard - Cassinia Close,"75 Palm Springs Boulevard, Papamoa Beach, Papamoa",-37.7176856051543,176.330556428361,BOP00_1A,,0,,Pacific/Auckland,,,0,
20002158,2158,,Grenada Street - Opposite Makura Drive,"(Opposite) 551 Grenada Street, Papamoa Beach, Papamoa",-37.685338,176.248322,BOP00_1A,,0,,Pacific/Auckland,,,0,
20002159,2159,,Grenada Street - Sandhurst Drive,"321 Grenada Street, Papamoa Beach, Papamoa",-37.6844055818525,176.245978153629,BOP00_1A,,0,,Pacific/Auckland,,,0,
20002160,2160,,Welcome Bay Road - Stand D,"11 Welcome Bay Road, Hairini, Tauranga",-37.7274329127719,176.169979023706,BOP00_1A,,0,,Pacific/Auckland,,,0,
20002161,2161,,Taurikura Dr - Paerangi Pl,"204 Taurikura Drive, Tauriko, Tauranga",-37.7508395465306,176.097277531878,BOP00_1A,,0,,Pacific/Auckland,,,0,
20002162,2162,,Ballintoy Park Drive - Moira Close,"31 Ballintoy Park Drive, Welcome Bay, Tauranga",-37.7429917671344,176.201150786728,BOP00_1A,,0,,Pacific/Auckland,,,0,
20002164,2164,,Katikati College,"28 Beach Road, Katikati",-37.552100580967,175.92184509343,BOP00_3B,,0,,Pacific/Auckland,,,0,
20002166,2166,,Park Road - Opposite Binnie Road,"66 Park Road, Katikati",-37.546322239465,175.92571153512,BOP00_3B,,0,,Pacific/Auckland,,,0,
20002167,2167,,Seaforth Road - Emerton Road,"202 Seaforth Road, Waihi Beach",-37.428939815716,175.9578892713,BOP00_4B,,0,,Pacific/Auckland,,,0,
20002168,2168,,Waihi Beach Information Centre,"33 Wilson Road, Waihi Beach",-37.411650620354,175.94233174409,BOP00_4B,,0,,Pacific/Auckland,,,0,
20002169,2169,,The Boulevard - Forstera Way,"93 The Boulevard, Papamoa Beach, Papamoa",-37.72039186268034,176.33186639925293,BOP00_1A,,0,,Pacific/Auckland,,,0,
20002170,2170,,The Boulevard - Palm Springs Blvd,"62A The Boulevard, Papamoa Beach, Papamoa",-37.720043466014,176.329726433954,BOP00_1A,,0,,Pacific/Auckland,,,0,
20002171,2171,,The Boulevard - Kamahi Crescent,"122 The Boulevard, Papamoa Beach, Papamoa",-37.7227504295669,176.335828095204,BOP00_1A,,0,,Pacific/Auckland,,,0,
20002172,2172,,Maunganui Road - Golf Road,"566 Maunganui Road, Mount Maunganui",-37.663717307070925,176.2073966018521,BOP00_1A,,0,,Pacific/Auckland,,,0,
20002173,2173,,Maunganui Road - Tui Street,"561 Maunganui Road, Mount Maunganui",-37.65932350049351,176.20355369342377,BOP00_1A,,0,,Pacific/Auckland,,,0,
20002174,2174,,Opposite Macville Park,"563 Maunganui Road, Mount Maunganui",-37.6597162822677,176.203773037882,BOP00_1A,,0,,Pacific/Auckland,,,0,
20002175,2175,,Maunganui Road - Tweed Street,"493 Maunganui Road, Mount Maunganui",-37.6538178544909,176.198389535459,BOP00_1A,,0,,Pacific/Auckland,,,0,
20002176,2176,,Maunganui Road - Hull Road,"493 Maunganui Road, Mount Maunganui",-37.6539419553022,176.19831199437,BOP00_1A,,0,,Pacific/Auckland,,,0,
20002177,2177,,Maunganui Road - Kupe Ave,"544 Maunganui Road, Mount Maunganui",-37.65728388046765,176.20182613442267,BOP00_1A,,0,,Pacific/Auckland,,,0,
20002178,2178,,Maunganui Road - Opposite Kupe Ave,"544 Maunganui Road, Mount Maunganui",-37.6573169,176.2017464,BOP00_1A,,0,,Pacific/Auckland,,,0,
20002179,2179,,Waikite Road - Galaxy Place,"55 Waikite Road, Welcome Bay, Tauranga",-37.7325991963943,176.201817598573,BOP00_1A,,0,,Pacific/Auckland,,,0,
20002180,2180,,Waikite Road - Flight Valley Way,"91 Waikite Road, Welcome Bay, Tauranga",-37.7360475837538,176.201412260464,BOP00_1A,,0,,Pacific/Auckland,,,0,
20002181,2181,,Ballintoy Park Drive,"145 Ballintoy Park Drive, Welcome Bay, Tauranga",-37.7439845985836,176.201371776578,BOP00_1A,,0,,Pacific/Auckland,,,0,
20002182,2182,,Totara Street - Puriri Street,"33 Totara Street, Mount Maunganui",-37.645215984752,176.186168092491,BOP00_1A,,0,,Pacific/Auckland,,,0,
20002183,2183,,Totara Street - Opposite No. 17,"17 Totara Street, Mount Maunganui",-37.6440961384982,176.18572860883,BOP00_1A,,0,,Pacific/Auckland,,,0,
20002186,2186,,Totara Street - Blake Park,"60 Totara Street, Mount Maunganui",-37.64997422138604,176.18712364418195,BOP00_1A,,0,,Pacific/Auckland,,,0,
20002187,2187,,Totara Street - Opposite Blake Park,"60 Totara Street, Tauranga",-37.649972243696794,176.1869371971609,BOP00_1A,,0,,Pacific/Auckland,,,0,
20002189,2189,,Evans Road - Opposite Tahatai Coast School,"112 Evans Road, Papamoa Beach, Papamoa",-37.6929317920636,176.259297200724,BOP00_1A,,0,,Pacific/Auckland,,,0,
20002190,2190,,Totara Street - Opposite Astrolabe St,"165 Totara Street, Mount Maunganui",-37.6583964863918,176.187120944159,BOP00_1A,,0,,Pacific/Auckland,,,0,
20002191,2191,,Totara Street - Fronting No. 170,"170 Totara Street, Mount Maunganui",-37.6588246908527,176.187037411265,BOP00_1A,,0,,Pacific/Auckland,,,0,
20002192,2192,,Totara Street - Waimarie Street,"194 Totara Street, Mount Maunganui",-37.66259835640211,176.1871412974657,BOP00_1A,,0,,Pacific/Auckland,,,0,
20002193,2193,,Totara Street - Maui Street,"198 Totara Street, Mount Maunganui",-37.663429082673,176.186992410477,BOP00_1A,,0,,Pacific/Auckland,,,0,
20002194,2194,,Windsor Road - Otumoetai College,"96 Windsor Road, Bellevue, Tauranga",-37.6804621338587,176.128365163668,BOP00_1A,,0,,Pacific/Auckland,,,0,
20002195,2195,,Monowai Street - Opposite Ngarimu Pl,"25 Monowai Street, Mount Maunganui",-37.6791795688559,176.229398983763,BOP00_1A,,0,,Pacific/Auckland,,,0,
20002196,2196,,Monowai Street,"32 Monowai Street, Mount Maunganui",-37.6788421338348,176.230006715066,BOP00_1A,,0,,Pacific/Auckland,,,0,
20002197,2197,,Devonport Road - Tauranga Boys' College,"428 Devonport Road, Tauranga South, Tauranga",-37.703366174444,176.158320282787,BOP00_1A,,0,,Pacific/Auckland,,,0,
20002198,2198,,Castlewold Drive - Sterling Gate Drive,"250 Castlewold Drive, Bethlehem, Tauranga",-37.7001362937039,176.124489584125,BOP00_1A,,0,,Pacific/Auckland,,,0,
20002199,2199,,Castlewold Drive - Fronting Number 194,"194 Castlewold Drive, Bethlehem, Tauranga",-37.7021202258786,176.121877980258,BOP00_1A,,0,,Pacific/Auckland,,,0,
20002200,2200,,Castlewold Drive - Siemonek Rise,"90 Castlewold Drive, Bethlehem, Tauranga",-37.7057909021844,176.119333511342,BOP00_1A,,0,,Pacific/Auckland,,,0,
20002201,2201,,Castlewold Drive - Edwin Grove,"28 Castlewold Drive, Bethlehem, Tauranga",-37.7093578997105,176.117886283153,BOP00_1A,,0,,Pacific/Auckland,,,0,
20002202,2202,,St Andrews Drive - Ashmore Court,"1 Ashmore Court, Bethlehem, Tauranga",-37.7109767275286,176.116270219439,BOP00_1A,,0,,Pacific/Auckland,,,0,
20002203,2203,B,Bayfair - Farm Street (Stand B),"55 Farm Street, Mount Maunganui",-37.6735622415807,176.224825905019,BOP00_1A,,0,,Pacific/Auckland,,,0,
20002204,2204,,Taurikura Dr - Hotuhotu St,"106 Taurikura Drive, Tauriko, Tauranga",-37.7445584380482,176.100733169466,BOP00_1A,,0,,Pacific/Auckland,,,0,
20002205,2205,,Taurikura Dr - Whakakake St,"26 Taurikura Drive, Tauriko, Tauranga",-37.7418545181318,176.102283761063,BOP00_1A,,0,,Pacific/Auckland,,,0,
20002207,2207,,Maranui Street - Pacific Coast Village,"150 Maranui Street, Mount Maunganui",-37.679025480648725,176.2440781601257,BOP00_1A,,0,,Pacific/Auckland,,,0,
20002208,2208,,Poike Road - Awaiti Place,"16 Poike Road, Hairini, Tauranga",-37.7358736912739,176.159332797749,BOP00_1A,,0,,Pacific/Auckland,,,0,
20002209,2209,,Poike Road - Harrisfield Drive,"35 Poike Road, Hairini, Tauranga",-37.7360897808503,176.158923679668,BOP00_1A,,0,,Pacific/Auckland,,,0,
20002210,2210,,Poike Road - Opposite Greenstone Way,"82 Poike Road, Hairini, Tauranga",-37.7376236026168,176.15644285402,BOP00_1A,,0,,Pacific/Auckland,,,0,
20002211,2211,,Esmeralda Street - Rangataua Street,"15 Esmeralda Street, Welcome Bay, Tauranga",-37.7247238458654,176.194722216986,BOP00_1A,,0,,Pacific/Auckland,,,0,
20002214,2214,,Waikite Road - Watene Way,"4 Watene Way, Welcome Bay, Tauranga",-37.7280786516148,176.20215850377,BOP00_1A,,0,,Pacific/Auckland,,,0,
20002215,2215,,Marine Parade - Banks Avenue,"60 Marine Parade, Mount Maunganui",-37.6381706479118,176.188806775586,BOP00_1A,,0,,Pacific/Auckland,,,0,
20002216,2216,,Maunganui Road - Mt Drury Reserve,"59 Maunganui Road, Mount Maunganui",-37.63511930102889,176.18189768110568,BOP00_1A,,0,,Pacific/Auckland,,,0,
20002217,2217,,Hewletts Road - Newton Street,"28 Hewletts Road, Mount Maunganui",-37.6654872843187,176.205577598578,BOP00_1A,,0,,Pacific/Auckland,,,0,
20002218,2218,,Marine Parade - Opposite 134,"1/135 Marine Parade, Mount Maunganui",-37.6450109204162,176.196154753939,BOP00_1A,,0,,Pacific/Auckland,,,0,
20002220,2220,,Marine Parade - Opposite Clyde Street,"181 Marine Parade, Mount Maunganui",-37.6501434059114,176.202879589631,BOP00_1A,,0,,Pacific/Auckland,,,0,
20002221,2221,,Devonport Road - First Avenue,"34 First Avenue, Tauranga",-37.6886889333053,176.168679087021,BOP00_1A,,0,,Pacific/Auckland,,,0,
20002222,2222,,Maranui Street - Bayswater Retirement Village,"42 Maranui Street, Mount Maunganui",-37.67505962297643,176.2369842883283,BOP00_1A,,0,,Pacific/Auckland,,,0,
20002223,2223,,Maranui Street - Ocean Shores Retirement Village,"97A Maranui Street, Mount Maunganui",-37.67710201372453,176.24066903765964,BOP00_1A,,0,,Pacific/Auckland,,,0,
20002225,2225,,Marine Parade - Opposite Grove Avenue,"77 Marine Parade, Mount Maunganui",-37.6407356575963,176.191081806175,BOP00_1A,,0,,Pacific/Auckland,,,0,
20002226,2226,,Waikite Road - Utopia Park Heights,"2 Watene Way, Welcome Bay, Tauranga",-37.7282445163615,176.202374433525,BOP00_1A,,0,,Pacific/Auckland,,,0,
20002227,2227,,Ohauiti Road - Opposite Shops,"141 Ohauiti Road, Hairini, Tauranga",-37.7338751069661,176.163689395419,BOP00_1A,,0,,Pacific/Auckland,,,0,
20002228,2228,,Omokoroa Road / State Highway 2,"508 Omokoroa Road, Omokoroa",-37.664595142026634,176.0149211796953,BOP00_2B,,0,,Pacific/Auckland,,,0,
20002234,2234,,Omokoroa Road - Opposite Prole Road,"429B Omokoroa Road, Omokoroa",-37.6604383499494,176.022876653935,BOP00_2B,,0,,Pacific/Auckland,,,0,
20002235,2235,,Omokoroa Road - Tralee Street,"165 Omokoroa Road, Omokoroa",-37.64166088983219,176.03874003696387,BOP00_2B,,0,,Pacific/Auckland,,,0,
20002236,2236,,Omokoroa Road - Kayelene Place,"300 Omokoroa Road, Omokoroa",-37.6504610666869,176.028956453762,BOP00_2B,,0,,Pacific/Auckland,,,0,
20002237,2237,,Omokoroa Road - Lynley Park Drive,"13 Holyoake Terrace, Omokoroa",-37.65051810319386,176.02904542010498,BOP00_2B,,0,,Pacific/Auckland,,,0,
20002238,2238,,Omokoroa Road - Settlers Avenue,"344 Omokoroa Road, Omokoroa",-37.6540227282842,176.02522239725994,BOP00_2B,,0,,Pacific/Auckland,,,0,
20002239,2239,,Omokoroa Road - Ridge Drive,"351 Omokoroa Road, Omokoroa",-37.6541093813134,176.025312192677,BOP00_2B,,0,,Pacific/Auckland,,,0,
20002240,2240,,Omokoroa Road - Western Avenue,"40 Richardson Road, Omokoroa",-37.6484136100035,176.031177067824,BOP00_2B,,0,,Pacific/Auckland,,,0,
20002241,2241,,Omokoroa Road - Parkland Rise,"271 Omokoroa Road, Omokoroa",-37.64889341744531,176.0309072875949,BOP00_2B,,0,,Pacific/Auckland,,,0,
20002242,2242,,Park Road - Summerset By The Sea,"190 Park Road, Katikati",-37.5381645802688,175.933138149659,BOP00_3B,,0,,Pacific/Auckland,,,0,
20002243,2243,,Athenree Hot Pools,"1 Athenree Road, Athenree, Waihi Beach",-37.44821438552073,175.9667252161052,BOP00_2B,,0,,Pacific/Auckland,,,0,
20002244,2244,,Marine Parade - Fronting 136,"136 Marine Parade, Mount Maunganui",-37.6452840955479,176.196373188075,BOP00_1A,,0,,Pacific/Auckland,,,0,
20002245,2245,,Marine Parade - Opposite Sutherland Avenue,"117 Marine Parade, Mount Maunganui",-37.6432625932833,176.193920106227,BOP00_1A,,0,,Pacific/Auckland,,,0,
20002246,2246,,Grenada Street - Hibiscus Avenue,"240 Grenada Street, Mount Maunganui",-37.6825219828862,176.241569636421,BOP00_1A,,0,,Pacific/Auckland,,,0,
20002247,2247,,Grenada Street - Aranui Drive,"588 Grenada Street, Papamoa Beach, Papamoa",-37.6874747630792,176.250026486398,BOP00_1A,,0,,Pacific/Auckland,,,0,
20002248,2248,,Grenada Street - Tuihana Drive,"631 Grenada Street, Papamoa Beach, Papamoa",-37.6891497538982,176.252178176293,BOP00_1A,,0,,Pacific/Auckland,,,0,
20002249,2249,,Grenada Street - Waterford Downs Reserve,"651 Grenada Street, Papamoa Beach, Papamoa",-37.6897255229354,176.253715900545,BOP00_1A,,0,,Pacific/Auckland,,,0,
20002250,2250,,Grenada Street - Pacific View Road,"691 Grenada Street, Papamoa Beach, Papamoa",-37.6899433101907,176.255039011241,BOP00_1A,,0,,Pacific/Auckland,,,0,
20002251,2251,,Grenada Street - Evans Road,"781 Grenada Street, Papamoa Beach, Papamoa",-37.6922623644452,176.25785429799,BOP00_1A,,0,,Pacific/Auckland,,,0,
20002252,2252,,Grenada Street - Pirika Place,"718 Grenada Street, Papamoa Beach, Papamoa",-37.6912487457373,176.257196576242,BOP00_1A,,0,,Pacific/Auckland,,,0,
20002254,2254,,Papamoa Beach Road - Logan Road,"288A Papamoa Beach Road, Papamoa Beach, Papamoa",-37.6866192603539,176.260109988683,BOP00_1A,,0,,Pacific/Auckland,,,0,
20002255,2255,,Papamoa Beach Road - Hartford Avenue,"370 Papamoa Beach Road, Papamoa Beach, Papamoa",-37.6896657026924,176.266264301292,BOP00_1A,,0,,Pacific/Auckland,,,0,
20002256,2256,,Papamoa Beach Road - Palm Beach Boulevard,"18 Santa Fe Key, Papamoa Beach, Papamoa",-37.6925322076676,176.27318560866,BOP00_1A,,0,,Pacific/Auckland,,,0,
20002257,2257,,Papamoa Beach Road - Opposite Papamoa Domain,"536 Papamoa Beach Road, Papamoa Beach, Papamoa",-37.6969468381571,176.283980458278,BOP00_1A,,0,,Pacific/Auckland,,,0,
20002258,2258,,Waikite Road - Gunbar Drive,"136 Waikite Road, Welcome Bay, Tauranga",-37.7393953687403,176.202354354446,BOP00_1A,,0,,Pacific/Auckland,,,0,
20002259,2259,,Marine Parade - Pacific Avenue,"27 Marine Parade, Mount Maunganui",-37.6343084613185,176.184840776792,BOP00_1A,,0,,Pacific/Auckland,,,0,
20002261,2261,,Papamoa Beach Road - Opposite Palm Beach Boulevard,"31 Malibu Key, Papamoa Beach, Papamoa",-37.6934103091787,176.275898541521,BOP00_1A,,0,,Pacific/Auckland,,,0,
20002262,2262,,Oceanbeach Road - Golf Road,"96A Oceanbeach Road, Mount Maunganui",-37.65963640846578,176.2144285264934,BOP00_1A,,0,,Pacific/Auckland,,,0,
20002263,2263,,Oceanbeach Road - Opposite Girven Road,"355 Oceanbeach Road, Mount Maunganui",-37.6714527973072,176.232097784276,BOP00_1A,,0,,Pacific/Auckland,,,0,
20002264,2264,,Oropi Road - Opposite Cheyne Road,"R/150 Oropi Road, Pyes Pa, Tauranga",-37.7407099840709,176.141580446494,BOP00_1A,,0,,Pacific/Auckland,,,0,
20002265,2265,,End of Freeburn Road,"118 Freeburn Road, Pyes Pa, Tauranga",-37.7498831598326,176.111942042828,BOP00_1A,,0,,Pacific/Auckland,,,0,
20002266,2266,,Freeburn Road - Bradley Road,"83 Freeburn Road, Pyes Pa, Tauranga",-37.74822190863124,176.11529460075536,BOP00_1A,,0,,Pacific/Auckland,,,0,
20002267,2267,,Raymond Avenue - Bayly Place,"3 Raymond Avenue, Te Puke",-37.7839787226404,176.313219279897,BOP00_2A,,0,,Pacific/Auckland,,,0,
20002268,2268,,Raymond Avenue,"3 Raymond Avenue, Te Puke",-37.784054851380226,176.31319485169627,BOP00_2A,,0,,Pacific/Auckland,,,0,
20002269,2269,,Ohauiti Road - Harrisfield Drive,"1 Harrisfield Drive, Hairini, Tauranga",-37.73210344459455,176.16474741675466,BOP00_1A,,0,,Pacific/Auckland,,,0,
20002270,2270,,Ohauiti Road - Wineberry Lane,"24 Ohauiti Road, Hairini, Tauranga",-37.7285032746506,176.167743553004,BOP00_1A,,0,,Pacific/Auckland,,,0,
20002271,2271,,Papamoa Domain,"535 Papamoa Beach Road, Papamoa Beach, Papamoa",-37.69693758900915,176.28422201491617,BOP00_1A,,0,,Pacific/Auckland,,,0,
20002272,2272,,Ohauiti Road - Poike Road,"164 Ohauiti Road, Hairini, Tauranga",-37.7346850903152,176.163119434138,BOP00_1A,,0,,Pacific/Auckland,,,0,
20002275,2275,,Tara Road -  Medical Centre,"33 Tara Road, Tauranga",-37.714374827834746,176.30663564771692,BOP00_1A,,0,,Pacific/Auckland,,,0,
20002276,2276,,Tara Road - Opposite Medical Centre,"34 Tara Road, Tauranga",-37.714272,176.306341,BOP00_1A,,0,,Pacific/Auckland,,,0,
20002277,2277,,Awakeri - Events Centre,"972 State Highway 30, Awakeri",-37.9946274283136,176.89843032867225,BOP00_5A,,0,,Pacific/Auckland,,,0,
20002278,2278,,Corinna Street - Flinders Place,"47 Corinna Street, Welcome Bay, Tauranga",-37.7252167963985,176.202134515405,BOP00_1A,,0,,Pacific/Auckland,,,0,
20002279,2279,,Corinna Street - Opposite Dunton Drive,"40 Corinna Street, Welcome Bay, Tauranga",-37.7252560244997,176.201643999279,BOP00_1A,,0,,Pacific/Auckland,,,0,
20002280,2280,,Ranginui Road - Welcome Bay Road,"10 Ranginui Road, Welcome Bay, Tauranga",-37.7263683903272,176.203549451678,BOP00_1A,,0,,Pacific/Auckland,,,0,
20002281,2281,,Ranginui Road,"16 Ranginui Road, Welcome Bay, Tauranga",-37.72583475992083,176.2036431223483,BOP00_1A,,0,,Pacific/Auckland,,,0,
20002282,2282,,Welcome Bay Road - Ranginui Road,"407 Welcome Bay Road, Welcome Bay, Tauranga",-37.72732909437716,176.20301090179868,BOP00_1A,,0,,Pacific/Auckland,,,0,
20002283,2283,,Lakeview Quay - Furl Close,"21 Lakeview Quay, Pyes Pa, Tauranga",-37.7436445679832,176.109102899601,BOP00_1A,,0,,Pacific/Auckland,,,0,
20002284,2284,,Range Road - Evans Road,"260 Range Road, Papamoa Beach, Papamoa",-37.6878747276462,176.260105801755,BOP00_1A,,0,,Pacific/Auckland,,,0,
20002285,2285,,Range Road - Logan Road,"243A Range Road, Papamoa Beach, Papamoa",-37.6870920129808,176.258682192534,BOP00_1A,,0,,Pacific/Auckland,,,0,
20002286,2286,,Range Road - Pacific View Road - West,"206A Range Road, Papamoa Beach, Papamoa",-37.6856152572181,176.255440831874,BOP00_1A,,0,,Pacific/Auckland,,,0,
20002287,2287,,Range Road - Pacific View Road - East,"211A Range Road, Papamoa Beach, Papamoa",-37.6856299002592,176.25562378258,BOP00_1A,,0,,Pacific/Auckland,,,0,
20002288,2288,,Mt Maunganui Intermediate,"22C Links Avenue, Mount Maunganui",-37.6658675293331,176.21082050529,BOP00_1A,,0,,Pacific/Auckland,,,0,
20002289,2289,,The Boulevard - Opposite Kamahi Crescent,"143 The Boulevard, Papamoa Beach, Papamoa",-37.722950157691,176.336594094603,BOP00_1A,,0,,Pacific/Auckland,,,0,
20002290,2290,,The Boulevard - Manuka Street,"159 The Boulevard, Papamoa Beach, Papamoa",-37.72370379146838,176.3379479991708,BOP00_1A,,0,,Pacific/Auckland,,,0,
20002291,2291,,Te Hono Street - Fronting No. 196,"196 Te Hono Street, Maungatapu, Tauranga",-37.71563212062676,176.18320982351293,BOP00_1A,,0,,Pacific/Auckland,,,0,
20002292,2292,,Paraone Koikoi Drive - Awataha Crescent,"1 Awataha Crescent, Pyes Pa, Tauranga",-37.75373894641329,176.10171614176846,BOP00_1A,,0,,Pacific/Auckland,,,0,
20002293,2293,,Mt Maunganui Intermediate (Bus Bay),"24 Links Avenue, Mount Maunganui",-37.66592095624517,176.2111857224004,BOP00_1A,,0,,Pacific/Auckland,,,0,
20002294,2294,,Maranui Street - Opposite Pacific Coast Village,"220 Maranui Street, Mt Maunganui",-37.6803940273542,176.247202083306,BOP00_1A,,0,,Pacific/Auckland,,,0,
20002295,2295,,Te Okuroa Drive - Papamoa Beach Village,"2 Okuroa Drive, Papamoa",-37.71438632263794,176.30996547405852,BOP00_1A,,0,,Pacific/Auckland,,,0,
20002296,2296,,Te Okuroa Drive - Kingfisher Way,"2 Okuroa Drive, Papamoa",-37.7145098066525,176.309953911273,BOP00_1A,,0,,Pacific/Auckland,,,0,
20002297,2297,,Te Okuroa Drive - Steenson Street,"1 Steenson Street, Papamoa",-37.7176805505441,176.31481145634928,BOP00_1A,,0,,Pacific/Auckland,,,0,
20002298,2298,,Te Okuroa Drive - Opposite Steenson Street,"1 Steenson Street, Papamoa",-37.7176895813259,176.314704933914,BOP00_1A,,0,,Pacific/Auckland,,,0,
20002299,2299,,Te Okuroa Drive - Waikiwi Way,"70 Farrier Street, Papamoa",-37.7211975824458,176.31726171819088,BOP00_1A,,0,,Pacific/Auckland,,,0,
20002300,2300,,Te Okuroa Drive - Flaxmill Way,"93 Dunkeld Drive, Papamoa",-37.721282969988295,176.3172124451474,BOP00_1A,,0,,Pacific/Auckland,,,0,
20002303,2303,,Te Okuroa Drive - Opposite Crown Street,"Te Okuroa Drive, Papamoa",-37.726413416045,176.33396748484,BOP00_1A,,0,,Pacific/Auckland,,,0,
20002304,2304,,Te Okuroa Drive - Crown Street,"Te Okuroa Drive, Papamoa",-37.72655036623792,176.3339448657744,BOP00_1A,,0,,Pacific/Auckland,,,0,
20002305,2305,,Corinna Street,"10 Corinna Street, Welcome Bay, Tauranga",-37.72585948637039,176.19918710752626,BOP00_1A,,0,,Pacific/Auckland,,,0,
20002306,2306,,Arawata Avenue - Dingadee Street,"22 Arawata Avenue, Welcome Bay, Tauranga",-37.72492567626663,176.19780125589222,BOP00_1A,,0,,Pacific/Auckland,,,0,
20002307,2307,,Waikato University - Durham Street,"145 Durham Street, Tauranga",-37.686312087671695,176.16692990181622,BOP00_1A,,0,,Pacific/Auckland,,,0,
20002308,2308,,Park Road - Katikati Primary School,"8a Park Road, Katikati",-37.5512081309009,175.923446415396,BOP00_3B,,0,,Pacific/Auckland,,,0,
20002309,2309,,Park Road - Beach Road,"11 Park Road, Katikati",-37.5512323898763,175.923616464758,BOP00_3B,,0,,Pacific/Auckland,,,0,
20002310,2310,,Park Road - Park Lane,"34 Park Road, Katikati",-37.54924788648774,175.92431529745045,BOP00_3B,,0,,Pacific/Auckland,,,0,
20002311,2311,,Park Road - Polley Crescent,"27 Park Road, Katikati",-37.5496376005775,175.92422539088,BOP00_3B,,0,,Pacific/Auckland,,,0,
20002312,2312,,Park Road - Binnie Road,"66 Park Road, Katikati",-37.54619222816968,175.92566530323217,BOP00_3B,,0,,Pacific/Auckland,,,0,
20002313,2313,,Park Road - Leveley Lane,"108 Park Road, Katikati",-37.542572311159,175.92735612019783,BOP00_3B,,0,,Pacific/Auckland,,,0,
20002314,2314,,Park Road - Levley Lane,"107 Park Road, Katikati",-37.54263028594272,175.92742936606192,BOP00_3B,,0,,Pacific/Auckland,,,0,
20002315,2315,,Park Road - Preston Drive,"143 Park Road, Katikati",-37.54031786555663,175.93009945405765,BOP00_3B,,0,,Pacific/Auckland,,,0,
20002316,2316,,Park Road - Francis Drive,"148 Park Road, Katikati",-37.5402312823547,175.930037940622,BOP00_3B,,0,,Pacific/Auckland,,,0,
20002317,2317,,State Highway 2 - Marshall Road,"139 State Highway 2, Katikati",-37.56105624274086,175.91515562735492,BOP00_3B,,0,,Pacific/Auckland,,,0,
20002318,2318,,State Highway 2 - Henry Road,"146 State Highway 2, Katikati",-37.5608739228066,175.91506692883502,BOP00_3B,,0,,Pacific/Auckland,,,0,
20002319,2319,,Vivian Drive,"28 Vivian Drive, Omokoroa",-37.6307119502262,176.047376775731,BOP00_2B,,0,,Pacific/Auckland,,,0,
20002320,2320,,Harbour View Road,"18 Harbour View Road, Omokoroa",-37.6316363405829,176.0506293869,BOP00_2B,,0,,Pacific/Auckland,,,0,
20002321,2321,,Omokoroa Road - The Esplanade,"11 Omokoroa Road, Omokoroa",-37.6329511903569,176.048365673917,BOP00_2B,,0,,Pacific/Auckland,,,0,
20002322,2322,,Hamurana Road - Kaharoa Avenue,"19 Hamurana Road, Omokoroa",-37.6345303325737,176.043970860587,BOP00_2B,,0,,Pacific/Auckland,,,0,
20002323,2323,,Omokoroa Road - Margaret Drive,"165 Omokoroa Road, Omokoroa",-37.6416825178676,176.038839987451,BOP00_2B,,0,,Pacific/Auckland,,,0,
20002324,2324,,Hamurana Road - Waterview Terrace,"106 Hamurana Road, Omokoroa",-37.638847361162,176.039207743927,BOP00_2B,,0,,Pacific/Auckland,,,0,
20002325,2325,,Hamurana Road - Owen Place,"61 Hamurana Road, Omokoroa",-37.6389052161826,176.039282057285,BOP00_2B,,0,,Pacific/Auckland,,,0,
20002327,2327,,Omokoroa Road - Prole Road,"426 Omokoroa Road, Omokoroa",-37.66025521672385,176.02262924414867,BOP00_2B,,0,,Pacific/Auckland,,,0,
20002328,2328,,Miro Drive,"67 Miro Drive, Murupara",-38.4623557545241,176.7105332618491,BOP01_4,,0,,Pacific/Auckland,,,0,
20002329,2329,,Te Ranga Memorial Drive - Tunbridge Street,"Mortlake Heights, Tauranga",-37.753436211536254,176.10998407382868,BOP00_1A,,0,,Pacific/Auckland,,,0,
20002330,2330,,Te Ranga Memorial Drive - Penetaka Heights,"57 Te Ranga Memorial Drive, Tauranga",-37.75897833707649,176.1084810511328,BOP00_1A,,0,,Pacific/Auckland,,,0,
20002331,2331,,Cambridge Road - Sycamore Rise,"1 Sycamore Rise, Tauranga",-37.731324733332585,176.10264622837445,BOP00_1A,,0,,Pacific/Auckland,,,0,
20002332,2332,,Cambridge Road - Westridge Drive,"3 Westridge Drive, Tauranga",-37.719814212828396,176.11183582610948,BOP00_1A,,0,,Pacific/Auckland,,,0,
20002333,2333,,Cambridge Road - Miles Lane,"426 Cambridge Road, Tauranga",-37.72506236447539,176.1074249938793,BOP00_1A,,0,,Pacific/Auckland,,,0,
20002334,2334,,Cambridge Road- Miles Lane,"427 Cambridge Road, Tauranga",-37.72539329899639,176.1073571046681,BOP00_1A,,0,,Pacific/Auckland,,,0,
20002335,2335,,Valley Road - Moa Street,"179 Valley Road, Mt Maunganui",-37.6571877855417,176.207749483242,BOP00_1A,,0,,Pacific/Auckland,,,0,
20002336,2336,,Harbour View Road - Vivian Drive,"76 Harbour View Drive, Omokoroa",-37.6295621734936,176.049915328318,BOP00_2B,,0,,Pacific/Auckland,,,0,
20002337,2337,,Ngatai Road - Bureta Road,"89 Ngatai Road, Tauranga",-37.66787405355382,176.15423553815862,BOP00_1A,,0,,Pacific/Auckland,,,0,
20002338,2338,,Sharp Road - Fairview Estate,"24 Sharp Road, Katikati",-37.59141228067357,175.91466060843885,BOP00_2B,,0,,Pacific/Auckland,,,0,
20002342,2342,,Morton Road,"3 Morton Road, Katikati",-37.6252918169541,175.956366286751,BOP00_2B,,0,,Pacific/Auckland,,,0,
20002343,2343,,Waihi Health Centre,"2 School Lane, Waihi",-37.390698513943,175.839138805048,BOP00_4B,,0,,Pacific/Auckland,,,0,
20002344,2344,,Otumoetai Road - Opposite Glenn Terrace,"332 Otumoetai Road, Tauranga",-37.6770304481574,176.136322182198,BOP00_1A,,0,,Pacific/Auckland,,,0,
20002345,2345,,Sandhurst Drive - Haven Grove,"6B Sandhurst Drive, Ppmoa",-37.6823715383543,176.249202725327,BOP00_1A,,0,,Pacific/Auckland,,,0,
20002346,2346,,Sandhurst Drive - Maranui Street,"11 Sandhurst Drive, Ppmoa",-37.6824165609438,176.249296053069,BOP00_1A,,0,,Pacific/Auckland,,,0,
20002347,2347,,Sandhurst Drive  Grenada Street,"69 Sandhurst Drive, Ppmoa",-37.68539183027074,176.247181357999,BOP00_1A,,0,,Pacific/Auckland,,,0,
20002348,2348,,Sandhurst Drive  Hiria Cr,"44 Sandhurst Drive, Ppmoa",-37.68519905772049,176.24719575522033,BOP00_1A,,0,,Pacific/Auckland,,,0,
20002349,2349,,Sandhurst Drive - Gloucester Road - South,"Sandhurst Drive, Ppmoa",-37.6878145940826,176.245491177343,BOP00_1A,,0,,Pacific/Auckland,,,0,
20002350,2350,,Sandhurst Drive - Gloucester Road - North,"Sandhurst Drive, Ppmoa",-37.6876492453949,176.24545162541,BOP00_1A,,0,,Pacific/Auckland,,,0,
20002351,2351,,Pyes Pa - Memorial Gardens,403 Pyes Pa Road,-37.7697912306609,176.116484379194,BOP00_1A,,0,,Pacific/Auckland,,,0,
20002352,2352,,Condor Drive - Inverness Drive,"148 Condor Drive, Tauranga",-37.7472936403263,176.127735939152,BOP00_1A,,0,,Pacific/Auckland,,,0,
20002353,2353,,Condor Drive - Copper Crest,"Opposite 85 Condor Drive, Tauranga",-37.7467684905571,176.130407299869,BOP00_1A,,0,,Pacific/Auckland,,,0,
20002354,2354,,Condor Dr- Cheyne Rd,"6 Condor Drive, Tauranga",-37.74379180714497,176.13411517124877,BOP00_1A,,0,,Pacific/Auckland,,,0,
20002355,2355,,Cheyne Road - Copper Crest,"Opposite 247 Cheyne Road, Tauranga",-37.7426860866789,176.131055517815,BOP00_1A,,0,,Pacific/Auckland,,,0,
20002356,2356,,Cheyne Road Reserve,"241 Cheyne Road, Tauranga",-37.7423739565805,176.131096565589,BOP00_1A,,0,,Pacific/Auckland,,,0,
20002357,2357,,Cheyne Road - Kanuka Place,"174 Cheyne Road, Tauranga",-37.7402941184324,176.131995196091,BOP00_1A,,0,,Pacific/Auckland,,,0,
20002358,2358,,Cheyne Road - Taraire Mews,"1 Taraire Mews, Tauranga",-37.7380206840689,176.13230261648,BOP00_1A,,0,,Pacific/Auckland,,,0,
20002359,2359,,Cheyne Rd - Taramea Rise,"72 Cheyne Road, Tauranga",-37.7391135687238,176.128977887065,BOP00_1A,,0,,Pacific/Auckland,,,0,
20002360,2360,,Cheyne Road - Grantston Drive,"Opposite 45 Cheyne Road, Tauranga",-37.7393214655541,176.12670095494,BOP00_1A,,0,,Pacific/Auckland,,,0,
20002361,2361,,Cheyne Road - Cotswold Ct,"6 Cheyne Road, Tauranga",-37.738105423943,176.122941578872,BOP00_1A,,0,,Pacific/Auckland,,,0,
20002362,2362,,Pyes Pa Road - Opposite Freeburn Rd,"173 Pyes Pa Road, Tauranga",-37.7500007718997,176.121664734043,BOP00_1A,,0,,Pacific/Auckland,,,0,
20002363,2363,,Lakes Boulevard - Rochfort Cr,"221 Lakes Boulevard, Tauranga",-37.75576906069352,176.1041004103057,BOP00_1A,,0,,Pacific/Auckland,,,0,
20002364,2364,,Lakes Boulevard - Opposite Puhirake Cr,317 Lakes Boulevard,-37.7624685510534,176.107141650754,BOP00_1A,,0,,Pacific/Auckland,,,0,
20002365,2365,,Te Ranga Memorial Dr - Penetaka Heights,"54 Te Ranga Memorial Drive, Tauranga",-37.7588885815509,176.108460969832,BOP00_1A,,0,,Pacific/Auckland,,,0,
20002366,2366,,Te Ranga Memorial Drive - Kennedy Rd,"4 Te Ranga Memorial Drive, Tauranga",-37.7544273328362,176.109661542677,BOP00_1A,,0,,Pacific/Auckland,,,0,
20002367,2367,,Kennedy Rd - Opposite Flack St,"76 Kennedy Road, Tauranga",-37.7544478603944,176.112290356379,BOP00_1A,,0,,Pacific/Auckland,,,0,
20002368,2368,,Kennedy Rd - Flack St,"Opposite 76 Kennedy Road, Tauranga",-37.7545269985688,176.11241460229,BOP00_1A,,0,,Pacific/Auckland,,,0,
20002369,2369,,Landing Drive - Ngakumama Reserve,"14 Landing Drive, Pyes Pa, Tauranga",-37.7416606219274,176.109077535663,BOP00_1A,,0,,Pacific/Auckland,,,0,
20002370,2370,,Lakes Blvd - Bracken Mews,"129 Lakes Blvd, Pyes Pa, Tauranga",-37.7498275112302,176.108190677508,BOP00_1A,,0,,Pacific/Auckland,,,0,
20002371,2371,,Lakes Boulevard - Bracken Mews,"120 Lakes Boulevard, Pyes Pa, Tauranga",-37.7495838912136,176.108353452391,BOP00_1A,,0,,Pacific/Auckland,,,0,
20002372,2372,A2,Bayfair - Farm Street (Stand A2),"59 Farm Street, Mount Maunganui",-37.6738051785013,176.225103801862,BOP00_1A,,0,,Pacific/Auckland,,,0,
20002373,2373,,Jackson Rd - SH36,"Opposite 279 Jackson Rd, Hamurana, Rotorua",-38.0133023716319,176.209255939341,BOP01_1,,0,,Pacific/Auckland,,,0,
20002374,2374,,Moffat Rd - Opposite 117,"Opposite 117, Moffat Rd, Tauranga",-37.7037844661901,176.1147156900467,BOP00_1A,,0,,Pacific/Auckland,,,0,
20002375,2375,,Links Ave - Outside No. 3,"3 Links Ave, Mt Maunganui Tauranga",-37.66443924915906,176.20955000814143,BOP00_1A,,0,,Pacific/Auckland,,,0,
20002376,2376,,Links Ave - Opposite Spur Ave,"67 Links Ave, Mt Maunganui",-37.66869934365102,176.2142237044696,BOP00_1A,,0,,Pacific/Auckland,,,0,
20002377,2377,,Links Avenue  - Opposite Ascot Road - East,100 Links Ave,-37.6700535,176.2161791,BOP00_1A,,0,,Pacific/Auckland,,,0,
20002378,2378,,Links Ave - Outside No.109,"109 Links Ave, Mt Maunganui",-37.670757697923676,176.2181874294546,BOP00_1A,,0,,Pacific/Auckland,,,0,
20002379,2379,,Maunganui Rd - Heath St,"Maunganui Rd, Mt Maunganui",-37.65542285077352,176.20019938035597,BOP00_1A,,0,,Pacific/Auckland,,,0,
20002380,2380,,Landing Dr - Pumice Gl,"15 Landing Rd, Pyes Pa, Tauranga",-37.7419465,176.1086955,BOP00_1A,,0,,Pacific/Auckland,,,0,
20002381,2381,,Hollister Ln - Bertrowe Dr,"270 Hollister Lane, Tauranga",-37.7493304,176.1533681,BOP00_1A,,0,,Pacific/Auckland,,,0,
20002382,2382,,Turret Rd - Silver Birch Holiday Park,"99 Turret Rd, Tauranga",-37.715445233992995,176.16502500804717,BOP00_1A,,0,,Pacific/Auckland,,,0,
20002383,2383,,Waitaha Rd - Opposite Village Park Dr,"115 Waitaha Rd, Tauranga",-37.72964937824067,176.19078496365591,BOP00_1A,,0,,Pacific/Auckland,,,0,
20002384,2384,,Tauriko School,"768 State Highway 29, Taurkio, Tauranga",-37.740816231147626,176.09562975433545,BOP00_1A,,0,,Pacific/Auckland,,,0,
20002385,2385,,Wallace Place,"19 Wallace Place, Tauranga",-37.7215695808518,176.114993385977,BOP00_1A,,0,,Pacific/Auckland,,,0,
20002386,2386,,Cameron Rd - Gate Pa Tennis Club,"1073 Cameron Road, Gate Pa, Tauranga",-37.7157591891874,176.139234317864,BOP00_1A,,0,,Pacific/Auckland,,,0,
20002387,2387,,Willow Street - Armitage Hotel,"9 Willow Street, Tauranga",-37.67844637243874,176.1684438304302,BOP00_1A,,0,,Pacific/Auckland,,,0,
20002388,2388,,Dickson Road - Allan Place,"55 Dickson Road, Papamoa",-37.7007761171718,176.290433022533,BOP00_1A,,0,,Pacific/Auckland,,,0,
20002389,2389,,Te Okuroa Drive - Livingstone Drive,"185 Te Okuroa Drive, Papamoa",-37.727819691377,176.337987974743,BOP00_1A,,0,,Pacific/Auckland,,,0,
20002390,2390,,Te Okuroa Drive - Union Drive west,"182 Te Okuroa Drive, Papamoa",-37.7278797803961,176.337856789336,BOP00_1A,,0,,Pacific/Auckland,,,0,
20002391,2391,,Te Okuroa Drive - Stevenson Drive,"231 Te Okuroa Drive, Papamoa",-37.73027919405321,176.34124234153376,BOP00_1A,,0,,Pacific/Auckland,,,0,
20002392,2392,,Te Okuroa Drive - Union Drive east,"115 Te Okuroa Drive, Papamoa",-37.73042942940411,176.3412059562488,BOP00_1A,,0,,Pacific/Auckland,,,0,
20002393,2393,,Stevenson Drive - Bill Miller Drive,"24 Stevenson Drive, Papamoa",-37.728709038603945,176.34413477395998,BOP00_1A,,0,,Pacific/Auckland,,,0,
20002394,2394,,Stevenson Drive,"23 Stevenson Drive, Papamoa",-37.72881412962661,176.34390469796887,BOP00_1A,,0,,Pacific/Auckland,,,0,
20002395,2395,,The Boulevard - Carronade Street,"1 Carronade Street, Papamoa",-37.726101274722815,176.34259388187724,BOP00_1A,,0,,Pacific/Auckland,,,0,
20002396,2396,,The Boulevard - Opposite Carronade Street,"196 The Boulevard, Papamoa",-37.72630635387186,176.34266837970443,BOP00_1A,,0,,Pacific/Auckland,,,0,
20002397,2397,,The Hub (Eastbound),"1 Phoenix Drive, Whakatane",-37.95386380900654,176.96770067968106,BOP00_6A,,0,,Pacific/Auckland,,,0,
20002398,2398,,The Hub (Westbound),"1 Phoenix Street, Whakatane",-37.95390965023476,176.9676639235314,BOP00_6A,,0,,Pacific/Auckland,,,0,
20002399,2399,,The Boulevard - Stevenson Drive (eastbound),"Opposite 230 The Boulevard, Papamoa",-37.7269891458261,176.344967688026,BOP00_1A,,0,,Pacific/Auckland,,,0,
20002400,2400,,The Boulevard - Stevenson Drive (westbound),"230 The Boulevard, Papamoa",-37.727127637262996,176.34484109455673,BOP00_1A,,0,,Pacific/Auckland,,,0,
20002401,2401,A,Tauranga City - Durham Street (Stand A),"53 Durham Street, Tauranga",-37.6837377955135,176.167261341467,BOP00_1A,,0,,Pacific/Auckland,,,0,
20002402,2402,B,Tauranga City - Durham Street (Stand B),"72 Durham Street, Tauranga",-37.68422008362479,176.16744119725814,BOP00_1A,,0,,Pacific/Auckland,,,0,
20002403,2403,C,Tauranga City - Durham Street (Stand C),"60 Durham Street, Tauranga",-37.6839982460721,176.167412018573,BOP00_1A,,0,,Pacific/Auckland,,,0,
20002404,2404,D,Tauranga City - Wharf Street (Stand D),"Opp. 50 Whart Street, Tauranga",-37.6833867929742,176.167895511006,BOP00_1A,,0,,Pacific/Auckland,,,0,
20002405,2405,,Marine Parade - Pacific Avenue (northbound),"26 Marine Parade, Tauranga",-37.63422112609416,176.18460569381142,BOP00_1A,,0,,Pacific/Auckland,,,0,
20002407,2407,,Willow Street - Harington Street,"62 Willow Street, Tauranga",-37.68191867281607,176.1688150222834,BOP00_1A,,0,,Pacific/Auckland,,,0,
20002408,2408,,Bradley Avenue - Jason Place,"6 Jason Place, Pyes Pa, Tauranga",-37.745545,176.113894,BOP00_1A,,0,,Pacific/Auckland,,,0,
20002409,2409,,Bradley Avenue,"8 Bradley Avenue, Pyes Pa, Tauranga",-37.747305,176.115257,BOP00_1A,,0,,Pacific/Auckland,,,0,
20002410,2410,,Devonport Road - Elizabeth Street,"119 Devonport Road, Tauranga",-37.687755,176.168969,BOP00_1A,,0,,Pacific/Auckland,,,0,
20002411,,,PROPOSED Stirling Gate Drive - Portchester Close,47 Stirling Gate Drive,-37.70315560256508,176.12489075172618,BOP00_1A,,0,,Pacific/Auckland,,,0,
20002412,,,PROPOSED Stirling Gate Drive - Hallmark Rise,69 Stirling Gate Drive,-37.701514701759656,176.12503368477724,BOP00_1A,,0,,Pacific/Auckland,,,0,
20002413,,,PROPOSED Waihi Road - Bell Street,261 Waihi Road,-37.69563649620004,176.136028547026,BOP00_1A,,0,,Pacific/Auckland,,,0,
20002414,,,PROPOSED Stirling Gate Drive - Beaumaris Boulevard,129 Stirling Gate DRive,-37.69859203698467,176.12443786799508,BOP00_1A,,0,,Pacific/Auckland,,,0,
20002415,,,PROPOSED Willow Street - Brown Street,4 Willow Street,-37.67841560527304,176.16850386989933,BOP00_1A,,0,,Pacific/Auckland,,,0,
20002416,,,PROPOSED Willow Street - Monmouth Street,32 Willow Street,-37.680390616229744,176.16865040549675,BOP00_1A,,0,,Pacific/Auckland,,,0,
20002417,,,PROPOSED Willow Street - McLean Street,Opposite 32 Willow STreet,-37.68045407259879,176.1685991214266,BOP00_1A,,0,,Pacific/Auckland,,,0,
20002418,,,PROPOSED Argyll Road - Cameron Road,105 Argyll Road,-37.731419539569565,176.12824490717458,BOP00_1A,,0,,Pacific/Auckland,,,0,
20002419,,,PROPOSED Argyll Road - Carlisle Street,67 Argyll Road,-37.732690675264124,176.13077926358744,BOP00_1A,,0,,Pacific/Auckland,,,0,
20002420,,,PROPOSED Kiteroa Street,27 Devon Street,-37.73176019924449,176.132753295898,BOP00_1A,,0,,Pacific/Auckland,,,0,
20002421,,,PROPOSED Devon Street - Opposite Moreland Fox Park,12 Devon Street,-37.7310311850454,176.134163706487,BOP00_1A,,0,,Pacific/Auckland,,,0,
20002422,,,PROPOSED - Moreland Fox Park,3 Devon Street,-37.730591603936126,176.1345800709807,BOP00_1A,,0,,Pacific/Auckland,,,0,
20002423,,,PROPOSED Mansels Road - Pooles Road,1 Mansels Road,-37.73019883317662,176.13526575784437,BOP00_1A,,0,,Pacific/Auckland,,,0,
20002424,,,PROPOSED Mansels Road - Emmett Street,17 Mansels Road,-37.72911119344209,176.13636758507005,BOP00_1A,,0,,Pacific/Auckland,,,0,
20002426,,,PROPOSED Moffat Road - Elder Lane,Opposite 104 Moffat Road,-37.70491968725427,176.11474929586626,BOP00_1A,,0,,Pacific/Auckland,,,0,
20002430,,,PROPOSED Gloucester Road - Denny Hulme Drive,110 Gloucester Road,-37.68226916305613,176.2323983702185,BOP00_1A,,0,,Pacific/Auckland,,,0,
20002432,,,PROPOSED Gloucester Road - Ocean Downs Reserve,Opposite 233 Gloucester Road,-37.684155325636425,176.2356456436272,BOP00_1A,,0,,Pacific/Auckland,,,0,
20002436,,,PROPOSED Sunrise Avenue - Acacia Court,3a Sunrise Avenue,-37.68160524067125,176.24089436055993,BOP00_1A,,0,,Pacific/Auckland,,,0,
20002437,,,PROPOSED - St Andrews Drive - Edinburgh Place,41 St Andrews Drive,-37.7039011489144,176.11821468273752,BOP00_1A,,0,,Pacific/Auckland,,,0,
20002438,,,PROPOSED St Andrews Drive - Opposite Sabana Place,99 St Andrews Drive,-37.70653041700768,176.11675509562684,BOP00_1A,,0,,Pacific/Auckland,,,0,
20002439,,,PROPOSED St Andrews Drive - Sardinia Rise,80 St Andrews Drive,-37.706716240547294,176.11662761712597,BOP00_1A,,0,,Pacific/Auckland,,,0,
20002440,2440,,Te Okuroa Drive - Pasture Way,Te Okuroa Drive - Pasture Way,-37.72552582513338,176.32716423487926,BOP00_1A,,0,,Pacific/Auckland,,,0,
20002441,2441,,Te Okuroa Drive - Serrata Close,Te Okuroa Drive - Serrata Close,-37.725501997463695,176.3272857070271,BOP00_1A,,0,,Pacific/Auckland,,,0,
20002442,2442,,Cameron Road Fronting No. 25b - Queen Street,"Cameron Road - Fronting No. 25b, Te Puke",-37.784541,176.316929,BOP00_2A,,0,,Pacific/Auckland,,,0,
20002443,2443,,Cameron Road - Fronting No. 22 - Queen Street,"Cameron Road - Fronting No. 22 - Queen Street, Te Puke",-37.784537,176.317057,BOP00_2A,,0,,Pacific/Auckland,,,0,
20002444,2444,,Willow Street - Fronting  No. 51,"51 Willow Street, Tauranga",-37.681158,176.168648,BOP00_1A,,0,,Pacific/Auckland,,,0,
20002445,2445,,Harington Street - Fronting No.3,"3 Harrington Street, Tauranga",-37.68146347634941,176.16969610703143,BOP00_1A,,0,,Pacific/Auckland,,,0,
20002446,2446,,Hamilton Street - Opposite No.1,55 The Strand,-37.682266,176.169701,BOP00_1A,,0,,Pacific/Auckland,,,0,
20003000,3000,,Amohia Street,"1188-1194 Amohia Street, Rotorua",-38.136156,176.248963,BOP01_1,,0,,Pacific/Auckland,,,0,
20003001,3001,,Aquarius Drive - Fronting No. 4,"4 Aquarius Drive, Kawaha Point, Rotorua",-38.10705,176.238215,BOP01_1,,0,,Pacific/Auckland,,,0,
20003002,3002,,Aquarius Drive - Fronting No. 44,"44A Aquarius Drive, Kawaha Point, Rotorua",-38.10682428,176.2343997,BOP01_1,,0,,Pacific/Auckland,,,0,
20003003,3003,,Rotorua CBD - Arawa Street,"1131-1135 Arawa Street, Rotorua",-38.134955603515394,176.2525447385015,BOP01_1,,0,,Pacific/Auckland,,,0,
20003004,3004,,Bellingham Crescent - Fronting No. 50,"50 Bellingham Crescent, Fordlands, Rotorua",-38.14249352,176.2238965,BOP01_1,,0,,Pacific/Auckland,,,0,
20003005,3005,,Bennetts Road,"16 Bennetts Road, Koutu, Rotorua",-38.12594667,176.238587,BOP01_1,,0,,Pacific/Auckland,,,0,
20003006,3006,,Blomfield Street - Fronting No. 34,"34 Blomfield Street, Pukehangi, Rotorua",-38.14064793,176.2018045,BOP01_1,,0,,Pacific/Auckland,,,0,
20003007,3007,,Blomfield Street - Fronting No. 68,"66 Blomfield Street, Pukehangi, Rotorua",-38.13866296,176.2043128,BOP01_1,,0,,Pacific/Auckland,,,0,
20003008,3008,,Chapman Place,"3 Chapman Place, Fairy Springs, Rotorua",-38.112086388771914,176.22565521812578,BOP01_1,,0,,Pacific/Auckland,,,0,
20003009,3009,,Clayton Road - Fronting No. 111,"111 Clayton Road, Mangakakahi, Rotorua",-38.1273885,176.2237891,BOP01_1,,0,,Pacific/Auckland,,,0,
20003010,3010,,Clayton Road - Fronting No. 112,"112 Clayton Road, Mangakakahi, Rotorua",-38.12762896,176.2237129,BOP01_1,,0,,Pacific/Auckland,,,0,
20003011,3011,,Clayton Road - Fronting No. 136,"136 Clayton Road, Mangakakahi, Rotorua",-38.12909395,176.2208752,BOP01_1,,0,,Pacific/Auckland,,,0,
20003012,3012,,Clayton Road - Fronting No. 143,"143 Clayton Road, Mangakakahi, Rotorua",-38.12899214,176.2208422,BOP01_1,,0,,Pacific/Auckland,,,0,
20003013,3013,,Clayton Road - Fronting No. 164,"164 Clayton Road, Mangakakahi, Rotorua",-38.13042098,176.2181754,BOP01_1,,0,,Pacific/Auckland,,,0,
20003014,3014,,Clayton Road - Fronting No. 197,"214 Clayton Road, Mangakakahi, Rotorua",-38.13076548,176.2138693,BOP01_1,,0,,Pacific/Auckland,,,0,
20003015,3015,,Clayton Road - Fronting No. 214,"214 Clayton Road, Mangakakahi, Rotorua",-38.1308561,176.2138704,BOP01_1,,0,,Pacific/Auckland,,,0,
20003016,3016,,Clayton Road - Fronting No. 350,"350 Clayton Road, Pukehangi, Rotorua",-38.13188154,176.1987708,BOP01_1,,0,,Pacific/Auckland,,,0,
20003017,3017,,Clayton Road - Fronting No. 65,"65 Clayton Road, Mangakakahi, Rotorua",-38.12522478,176.2280549,BOP01_1,,0,,Pacific/Auckland,,,0,
20003018,3018,,Clayton Road - Fronting No. 80,"80 Clayton Road, Mangakakahi, Rotorua",-38.12617894,176.2265096,BOP01_1,,0,,Pacific/Auckland,,,0,
20003019,3019,,Clayton Road - Fronting No. 320,"320A Clayton Road, Pukehangi, Rotorua",-38.13174786,176.2020879,BOP01_1,,0,,Pacific/Auckland,,,0,
20003020,3020,,Clayton Road - Opposite Lisa Crescent,"181 Clayton Road, Mangakakahi, Rotorua",-38.13056753,176.2159623,BOP01_1,,0,,Pacific/Auckland,,,0,
20003021,3021,,Coulter Road - Fronting No. 1,"1 Coulter Road, Owhata, Rotorua",-38.12942586,176.3030574,BOP01_1,,0,,Pacific/Auckland,,,0,
20003022,3022,,Coulter Road - Opposite No. 1,"1 Coulter Road, Owhata, Rotorua",-38.12932556,176.3031226,BOP01_1,,0,,Pacific/Auckland,,,0,
20003023,3023,,Deere Avenue - Fronting No. 18,"18 Deere Avenue, Fenton Park, Rotorua",-38.15677698,176.2571282,BOP01_1,,0,,Pacific/Auckland,,,0,
20003024,3024,,Deere Avenue - Opposite No. 14,"13 Kain Avenue, Fenton Park, Rotorua",-38.1563,176.257,BOP01_1,,0,,Pacific/Auckland,,,0,
20003025,3025,,Devon Street - Fronting No.74,"74 Devon Street, Glenholme, Rotorua",-38.15351642,176.2414979,BOP01_1,,0,,Pacific/Auckland,,,0,
20003026,3026,,Devon Street - Fronting No. 81,"81B Devon Street, Glenholme, Rotorua",-38.15339553,176.2414758,BOP01_1,,0,,Pacific/Auckland,,,0,
20003027,3027,,Devon Street West - Fronting No. 165,"165 Devon Street West, Hillcrest, Rotorua",-38.15341888,176.2334474,BOP01_1,,0,,Pacific/Auckland,,,0,
20003028,3028,,Rotorua International Staduim,"186 Devon Street West, Pomare, Rotorua",-38.15677525,176.2245523,BOP01_1,,0,,Pacific/Auckland,,,0,
20003029,3029,,Devon Street West - Opposite Smallbone Park,"195 Devon Street West, Rotorua",-38.15331644,176.2284511,BOP01_1,,0,,Pacific/Auckland,,,0,
20003030,3030,,Edmund Road - Fronting No. 67,"67 Edmund Road, Mangakakahi, Rotorua",-38.13396842,176.2135839,BOP01_1,,0,,Pacific/Auckland,,,0,
20003031,3031,,Edmund Road - Fronting No. 68,"68A Edmund Road, Mangakakahi, Rotorua",-38.13402471,176.2134321,BOP01_1,,0,,Pacific/Auckland,,,0,
20003032,3032,,Fairview Road - Fronting No. 23,"23A Fairview Road, Western Heights, Rotorua",-38.12275263,176.2218058,BOP01_1,,0,,Pacific/Auckland,,,0,
20003033,3033,,Fairview Road - Fronting No. 53,"53 Fairview Road, Western Heights, Rotorua",-38.12317549,176.2187872,BOP01_1,,0,,Pacific/Auckland,,,0,
20003034,3034,,Fairy Springs Road - Opposite Skyline,"165 Fairy Springs Road, Fairy Springs, Rotorua",-38.1088812101376,176.222764430153,BOP01_1,,0,,Pacific/Auckland,,,0,
20003035,3035,,Fairy Springs Road - Fronting No. 102,"10/100 Fairy Springs Road, Fairy Springs, Rotorua",-38.115233443983556,176.225923511681,BOP01_1,,0,,Pacific/Auckland,,,0,
20003036,3036,,Fairy Springs Road - Skyline,"166-176 Fairy Springs Road, Fairy Springs, Rotorua",-38.1101899,176.2231649,BOP01_1,,0,,Pacific/Auckland,,,0,
20003037,3037,,Fairy Springs Road - Fronting No. 31,"31 Fairy Springs Road, Fairy Springs, Rotorua",-38.12175422,176.2297092,BOP01_1,,0,,Pacific/Auckland,,,0,
20003038,3038,,Fairy Springs Road - Fronting No. 32,"32 Fairy Springs Road, Fairy Springs, Rotorua",-38.12206205,176.229613,BOP01_1,,0,,Pacific/Auckland,,,0,
20003039,3039,,Fairy Springs Road - Fronting No. 71,"71-75 Fairy Springs Road, Fairy Springs, Rotorua",-38.11755924,176.2275112,BOP01_1,,0,,Pacific/Auckland,,,0,
20003040,3040,,Fairy Springs Road - Fronting No. 84,"84 Fairy Springs Road, Fairy Springs, Rotorua",-38.11710226,176.2269137,BOP01_1,,0,,Pacific/Auckland,,,0,
20003041,3041,,Fenton Street - Fronting No. 283,"283 Fenton Street, Glenholme, Rotorua",-38.1471756,176.2536285,BOP01_1,,0,,Pacific/Auckland,,,0,
20003042,3042,,Fenton Street - Fronting No. 1241,"1241 Fenton Street, Rotorua",-38.13747481,176.2536615,BOP01_1,,0,,Pacific/Auckland,,,0,
20003043,3043,,Fenton Street - Fronting No. 214-218,"2/223 Fenton Street, Rotorua",-38.14078366,176.2539739,BOP01_1,,0,,Pacific/Auckland,,,0,
20003044,3044,,Fenton Street - Fronting No. 244,"244 Fenton Street, Victoria, Rotorua",-38.14326185,176.2539629,BOP01_1,,0,,Pacific/Auckland,,,0,
20003045,3045,,Fenton Street - Fronting No. 276,"276 Fenton Street, Glenholme, Rotorua",-38.14929185,176.253931,BOP01_1,,0,,Pacific/Auckland,,,0,
20003046,3046,,Fenton Street - Fronting No.307,"311 Fenton Street, Glenholme, Rotorua",-38.1507,176.2537,BOP01_1,,0,,Pacific/Auckland,,,0,
20003047,3047,,Fenton Street - Fronting No.406 (SH 30),"408 Fenton Street, Whakarewarewa, Rotorua",-38.15933992,176.2539411,BOP01_1,,0,,Pacific/Auckland,,,0,
20003048,3048,,Fenton Street - Opposite BP Station,"416 Fenton Street, Whakarewarewa, Rotorua",-38.1601,176.2536,BOP01_1,,0,,Pacific/Auckland,,,0,
20003049,3049,,Fenton Street - Opposite No. 285,"285 Fenton Street, Glenholme, Rotorua",-38.14737729,176.2539351,BOP01_1,,0,,Pacific/Auckland,,,0,
20003050,3050,,Fenton Street - Opposite Pak N Save,"209 Fenton Street, Rotorua",-38.140701,176.253616,BOP01_1,,0,,Pacific/Auckland,,,0,
20003051,3051,,Ford Road - Opposite No. 75,"75 Ford Road, Fordlands, Rotorua",-38.140937,176.222319,BOP01_1,,0,,Pacific/Auckland,,,0,
20003052,3052,,Frances Street - Fronting No. 15,"15 Frances Street, Ngongotaha, Rotorua",-38.07744018,176.2040576,BOP01_1,,0,,Pacific/Auckland,,,0,
20003054,3054,,Gordon Road - Fronting No. 102,"102 Gordon Road, Western Heights, Rotorua",-38.12710599,176.2117192,BOP01_1,,0,,Pacific/Auckland,,,0,
20003055,3055,,Gordon Road - Fronting No. 50,"50A Gordon Road, Western Heights, Rotorua",-38.12343543,176.216165,BOP01_1,,0,,Pacific/Auckland,,,0,
20003056,3056,,Gordon Road - Fronting No. 55,"55 Gordon Road, Western Heights, Rotorua",-38.1245595,176.2148024,BOP01_1,,0,,Pacific/Auckland,,,0,
20003057,3057,,Gordon Road - Fronting No. 99,"99 Gordon Road, Western Heights, Rotorua",-38.12703342,176.2116531,BOP01_1,,0,,Pacific/Auckland,,,0,
20003058,3058,,Gordon Road - Opposite 73-75,"73 Gordon Road, Western Heights, Rotorua",-38.12576203,176.2136729,BOP01_1,,0,,Pacific/Auckland,,,0,
20003059,3059,,Grand Vue Road,"93 Grand Vue Road, Kawaha Point, Rotorua",-38.109221,176.236793,BOP01_1,,0,,Pacific/Auckland,,,0,
20003060,3060,,Te Puia Thermal Park,"20 Hemo Road, Whakarewarewa, Rotorua",-38.16374082,176.2492372,BOP01_1,,0,,Pacific/Auckland,,,0,
20003061,3061,,Hilda Street - Fronting No. 22,"22 Hilda Street, Fenton Park, Rotorua",-38.1522034,176.2578016,BOP01_1,,0,,Pacific/Auckland,,,0,
20003062,3062,,Hilda Street - Fronting No. 38,"38 Hilda Street, Fenton Park, Rotorua",-38.15441243,176.2577856,BOP01_1,,0,,Pacific/Auckland,,,0,
20003063,3063,,Hilda Street - Fronting No.27,"25C Hilda Street, Fenton Park, Rotorua",-38.1545,176.2577,BOP01_1,,0,,Pacific/Auckland,,,0,
20003064,3064,,Hillcrest Avenue - Fronting No. 31,"31 Hillcrest Avenue, Hillcrest, Rotorua",-38.1494046,176.2360578,BOP01_1,,0,,Pacific/Auckland,,,0,
20003065,3065,,Hilton Road - Fronting No.10,"10A Hilton Road, Lynmore, Rotorua",-38.14950806,176.2860179,BOP01_1,,0,,Pacific/Auckland,,,0,
20003066,3066,,Hilton Road - Fronting No.17,"17A Hilton Road, Lynmore, Rotorua",-38.15002034,176.28676,BOP01_1,,0,,Pacific/Auckland,,,0,
20003067,3067,,Homedale Street - Fronting No. 29,"29 Homedale Street, Pukehangi, Rotorua",-38.13630759,176.2114329,BOP01_1,,0,,Pacific/Auckland,,,0,
20003068,3068,,Homedale Street - Fronting No. 32,"32 Homedale Street, Pukehangi, Rotorua",-38.13642305,176.2115998,BOP01_1,,0,,Pacific/Auckland,,,0,
20003069,3069,,Homedale Street - Fronting No. 77,"77 Homedale Street, Pukehangi, Rotorua",-38.13625248,176.2074052,BOP01_1,,0,,Pacific/Auckland,,,0,
20003070,3070,,Homedale Street - Opposite No. 1,"3 Homedale Street, Pukehangi, Rotorua",-38.136674991809016,176.2139783986437,BOP01_1,,0,,Pacific/Auckland,,,0,
20003071,3071,,Hood Street - Fronting No. 41,"41 Hood Street, Ngongotaha, Rotorua",-38.07851955,176.2061304,BOP01_1,,0,,Pacific/Auckland,,,0,
20003072,3072,,Hood Street - Fronting No.28,"28 Hood Street, Ngongotaha, Rotorua",-38.07864135,176.2071228,BOP01_1,,0,,Pacific/Auckland,,,0,
20003073,3073,,Huia Street - Fronting No. 22,"22 Huia Street, Hillcrest, Rotorua",-38.15151992,176.2329858,BOP01_1,,0,,Pacific/Auckland,,,0,
20003074,3074,,Iles Road - Fronting No. 51,"51C Iles Road, Lynmore, Rotorua",-38.14757603,176.2897766,BOP01_1,,0,,Pacific/Auckland,,,0,
20003075,3075,,Iles Road - Fronting No. 66,"66 Iles Road, Lynmore, Rotorua",-38.14741907,176.2898348,BOP01_1,,0,,Pacific/Auckland,,,0,
20003076,3076,,Kawaha Point - Fronting No. 104,"102 Kawaha Point Road, Kawaha Point, Rotorua",-38.11125587,176.2362029,BOP01_1,,0,,Pacific/Auckland,,,0,
20003077,3077,,Kawaha Point - Fronting No. 32,"30 Kawaha Point Road, Fairy Springs, Rotorua",-38.11210171,176.2274582,BOP01_1,,0,,Pacific/Auckland,,,0,
20003078,3078,,Kawaha Point - Fronting No. 50,"52 Kawaha Point Road, Kawaha Point, Rotorua",-38.11153771,176.2305642,BOP01_1,,0,,Pacific/Auckland,,,0,
20003079,3079,,Kawaha Point - Fronting No. 68,"68 Kawaha Point Road, Kawaha Point, Rotorua",-38.11120091,176.232324,BOP01_1,,0,,Pacific/Auckland,,,0,
20003080,3080,,Kawaha Point Road - Fronting No.33,"31 Kawaha Point Road, Fairy Springs, Rotorua",-38.1121621,176.2279571,BOP01_1,,0,,Pacific/Auckland,,,0,
20003081,3081,,Kawaha Point Road - Fronting No.69,"69 Kawaha Point Road, Kawaha Point, Rotorua",-38.1113326,176.2324854,BOP01_1,,0,,Pacific/Auckland,,,0,
20003082,3082,,Kea Street - Fronting No. 4,"120 Fairy Springs Road, Fairy Springs, Rotorua",-38.114024,176.224795,BOP01_1,,0,,Pacific/Auckland,,,0,
20003083,3083,,Kea Street - Fronting No. 66,"66 Kea Street, Selwyn Heights, Rotorua",-38.11816297,176.2203732,BOP01_1,,0,,Pacific/Auckland,,,0,
20003084,3084,,Kea Street - Opposite Mallard Drive,"39 Kea Street, Selwyn Heights, Rotorua",-38.11706102,176.2225936,BOP01_1,,0,,Pacific/Auckland,,,0,
20003085,3085,,Kerswell Terrace,"18 Kerswell Terrace, Tihiotonga, Rotorua",-38.171751,176.240641,BOP01_1,,0,,Pacific/Auckland,,,0,
20003086,3086,,Koutu Road - Fronting No. 22,"22 Koutu Road, Koutu, Rotorua",-38.12322398,176.2387704,BOP01_1,,0,,Pacific/Auckland,,,0,
20003087,3087,,Koutu Road - Fronting No. 33,"33 Koutu Road, Koutu, Rotorua",-38.12152624,176.2385973,BOP01_1,,0,,Pacific/Auckland,,,0,
20003088,3088,,Koutu Road - Fronting No. 57,"61A Koutu Road, Koutu, Rotorua",-38.11875401,176.2385859,BOP01_1,,0,,Pacific/Auckland,,,0,
20003089,3089,,Koutu Road - Fronting No. 62,"62 Koutu Road, Koutu, Rotorua",-38.11878195,176.2384426,BOP01_1,,0,,Pacific/Auckland,,,0,
20003090,3090,,Koutu Road - Fronting No. 91,"91 Koutu Road, Koutu, Rotorua",-38.11506434,176.2378533,BOP01_1,,0,,Pacific/Auckland,,,0,
20003091,3091,,Koutu Road - Fronting No. 98,"98 Koutu Road, Koutu, Rotorua",-38.11507003,176.2377104,BOP01_1,,0,,Pacific/Auckland,,,0,
20003092,3092,,Lake Road - Fronting No. 112-116,"116 Lake Road, Koutu, Rotorua",-38.12796492,176.2384382,BOP01_1,,0,,Pacific/Auckland,,,0,
20003093,3093,,Lake Road - Fronting No. 129,"127A Lake Road, Koutu, Rotorua",-38.12774114,176.2382808,BOP01_1,,0,,Pacific/Auckland,,,0,
20003094,3094,,Lake Road - Fronting No.155,"155 Lake Road, Mangakakahi, Rotorua",-38.12594591,176.2339515,BOP01_1,,0,,Pacific/Auckland,,,0,
20003095,3095,,Lake Road - Fronting No.156,"156 Lake Road, Mangakakahi, Rotorua",-38.12602565,176.2336599,BOP01_1,,0,,Pacific/Auckland,,,0,
20003096,3096,,Landscape Drive,"6 Landscape Drive, Ngongotaha, Rotorua",-38.06497284,176.2113677,BOP01_1,,0,,Pacific/Auckland,,,0,
20003097,3097,,Lee Road - Fronting No. 3,"3 Lee Road, Hannahs Bay, Rotorua",-38.12075217,176.3131426,BOP01_1,,0,,Pacific/Auckland,,,0,
20003098,3098,,Lee Road - Fronting No. 57,"57 Lee Road, Hannahs Bay, Rotorua",-38.1170897,176.307724,BOP01_1,,0,,Pacific/Auckland,,,0,
20003099,3099,,Leonard Road,"89 Leonard Road, Ngongotaha, Rotorua",-38.0667978,176.2126269,BOP01_1,,0,,Pacific/Auckland,,,0,
20003100,3100,,Lynmore Avenue - Fronting No. 17,"17 Lynmore Avenue, Lynmore, Rotorua",-38.14935651,176.2843518,BOP01_1,,0,,Pacific/Auckland,,,0,
20003101,3101,,Lynmore Avenue - Fronting No. 24A,"24A Lynmore Avenue, Lynmore, Rotorua",-38.14936123,176.2841346,BOP01_1,,0,,Pacific/Auckland,,,0,
20003102,3102,,Malfroy Road - Fronting No. 133,"1/133 Malfroy Road, Victoria, Rotorua",-38.144534,176.2396009,BOP01_1,,0,,Pacific/Auckland,,,0,
20003103,3103,,Malfroy Road - Fronting No. 134,"134 Malfroy Road, Victoria, Rotorua",-38.14465091,176.239715,BOP01_1,,0,,Pacific/Auckland,,,0,
20003104,3104,,Malfroy Road - Fronting No. 187,"187 Malfroy Road, Utuhina, Rotorua",-38.14487117,176.2358602,BOP01_1,,0,,Pacific/Auckland,,,0,
20003105,3105,,Malfroy School,"190 Malfroy Road, Utuhina, Rotorua",-38.14502909,176.235689,BOP01_1,,0,,Pacific/Auckland,,,0,
20003106,3106,,Malfroy Road - Fronting No. 237,"237 Malfroy Road, Utuhina, Rotorua",-38.14636247,176.2309103,BOP01_1,,0,,Pacific/Auckland,,,0,
20003107,3107,,Malfroy Road - Fronting No. 274,"274 Malfroy Road, Pomare, Rotorua",-38.14788576,176.2266319,BOP01_1,,0,,Pacific/Auckland,,,0,
20003108,3108,,Malfroy Road - Fronting No. 325,"325 Malfroy Road, Pomare, Rotorua",-38.14860369,176.2213294,BOP01_1,,0,,Pacific/Auckland,,,0,
20003109,3109,,Malfroy Road - Fronting No. 330,"330 Malfroy Road, Pomare, Rotorua",-38.14862628,176.2215393,BOP01_1,,0,,Pacific/Auckland,,,0,
20003110,3110,,Malfroy Road - Fronting No. 80,"80 Malfroy Road, Victoria, Rotorua",-38.14464639,176.2448977,BOP01_1,,0,,Pacific/Auckland,,,0,
20003111,3111,,Malfroy Road - Fronting No. 83,"84 Malfroy Road, Victoria, Rotorua",-38.14455879,176.2442415,BOP01_1,,0,,Pacific/Auckland,,,0,
20003112,3112,,Malfroy Road - Opposite No. 292,"1 Ford Road, Fordlands, Rotorua",-38.14773928,176.2250942,BOP01_1,,0,,Pacific/Auckland,,,0,
20003113,3113,,Malfroy Road - Opposite No. 48,"22 Ruihi Street, Victoria, Rotorua",-38.144512,176.248513,BOP01_1,,0,,Pacific/Auckland,,,0,
20003114,3114,,Malfroy Road - Fronting No. 240,"240 Malfroy Road, Utuhina, Rotorua",-38.14642856,176.2309998,BOP01_1,,0,,Pacific/Auckland,,,0,
20003115,3115,,Marguerita Street - Fronting No. 18,"18A Marguerita Street, Fenton Park, Rotorua",-38.15112994,176.2571162,BOP01_1,,0,,Pacific/Auckland,,,0,
20003116,3116,,Marguerita Street - Fronting No.17,"17 Marguerita Street, Fenton Park, Rotorua",-38.1512,176.2571,BOP01_1,,0,,Pacific/Auckland,,,0,
20003117,3117,,McDowell Street - Fronting No. 40,"40 McDowell Street, Springfield, Rotorua",-38.16166752,176.2308797,BOP01_1,,0,,Pacific/Auckland,,,0,
20003118,3118,,McDowell Street - Fronting No. 4,"4 McDowell Street, Springfield, Rotorua",-38.16441109729014,176.23220980956262,BOP01_1,,0,,Pacific/Auckland,,,0,
20003119,3119,,McKee Avenue - Fronting No. 10,"10 McKee Avenue, Fenton Park, Rotorua",-38.1578,176.2562,BOP01_1,,0,,Pacific/Auckland,,,0,
20003120,3120,,McKee Avenue - Opposite No. 10,"10 McKee Avenue, Fenton Park, Rotorua",-38.15789503,176.2561001,BOP01_1,,0,,Pacific/Auckland,,,0,
20003121,3121,,Toi Ohomai - Mokoia Campus,"1 Mokoia Drive, Tihiotonga, Rotorua",-38.16774833,176.2440684,BOP01_1,,0,,Pacific/Auckland,,,0,
20003122,3122,,Toi Ohomai - Opposite Mokoia Campus,"1 Mokoia Drive, Tihiotonga, Rotorua",-38.16766279,176.2442724,BOP01_1,,0,,Pacific/Auckland,,,0,
20003123,3123,,Morey Street - Cnr McKenzie Road,"9 Morey Street, Owhata, Rotorua",-38.14270387,176.2928198,BOP01_1,,0,,Pacific/Auckland,,,0,
20003124,3124,,Morey Street - Fronting No.52,"52A Morey Street, Owhata, Rotorua",-38.14099092,176.2963358,BOP01_1,,0,,Pacific/Auckland,,,0,
20003125,3125,,Morey Street - Opposite McKenzie Road,"14 Morey Street, Owhata, Rotorua",-38.14264448,176.2925902,BOP01_1,,0,,Pacific/Auckland,,,0,
20003126,3126,,Morey Street - Opposite No.52,"52A Morey Street, Owhata, Rotorua",-38.14101395,176.2965618,BOP01_1,,0,,Pacific/Auckland,,,0,
20003127,3127,,Neri Crescent - Fronting No. 36,"36 Neri Crescent, Pomare, Rotorua",-38.153506127712205,176.22107023022124,BOP01_1,,0,,Pacific/Auckland,,,0,
20003128,3128,,Kauae Cemetery,"11 Henderson Road, Ngongotaha, Rotorua",-38.092727,176.216249,BOP01_1,,0,,Pacific/Auckland,,,0,
20003129,3129,,Ngongotaha Road - Fronting No. 312,"312A Ngongotaha Road, Ngongotaha, Rotorua",-38.08678153,176.21294,BOP01_1,,0,,Pacific/Auckland,,,0,
20003130,3130,,Ngongotaha Road - Fronting No.289 (SH 5/36),"289 Ngongotaha Road, Ngongotaha, Rotorua",-38.08478673,176.2120777,BOP01_1,,0,,Pacific/Auckland,,,0,
20003131,3131,,Ngongotaha Road - Fronting No.430,"416 Ngongotaha Road, Fairy Springs, Rotorua",-38.09532252,176.2180449,BOP01_1,,0,,Pacific/Auckland,,,0,
20003132,3132,,Ngongotaha Road - Fronting No.525,"525 Ngongotaha Road, Fairy Springs, Rotorua",-38.103716793460855,176.22172563775052,BOP01_1,,0,,Pacific/Auckland,,,0,
20003133,3133,,Ngongotaha Road - Fronting No.548,"548 Ngongotaha Road, Fairy Springs, Rotorua",-38.10454944,176.2218474,BOP01_1,,0,,Pacific/Auckland,,,0,
20003134,3134,,Ngongotaha Road - Opposite No. 289,"288 Ngongotaha Road, Ngongotaha, Rotorua",-38.08461661,176.212265,BOP01_1,,0,,Pacific/Auckland,,,0,
20003135,3135,,Ngongotaha Road - Opposite No.430,"416 Ngongotaha Road, Fairy Springs, Rotorua",-38.0953816,176.2178524,BOP01_1,,0,,Pacific/Auckland,,,0,
20003136,3136,,Ngongotaha Road - Opposite Kauae Cemetery,"362 Ngongotaha Road, Ngongotaha, Rotorua",-38.091371,176.215573,BOP01_1,,0,,Pacific/Auckland,,,0,
20003137,3137,,Old Quarry Road,"80 Old Quarry Road, Selwyn Heights, Rotorua",-38.12005047,176.2191358,BOP01_1,,0,,Pacific/Auckland,,,0,
20003138,3138,,Old Taupo Raod (SH 5) - Opposite No. 183,"174 Old Taupo Road, Utuhina, Rotorua",-38.1416146,176.2369372,BOP01_1,,0,,Pacific/Auckland,,,0,
20003140,3140,,Old Taupo Road - Fronting No. 113,"113 Old Taupo Road, Mangakakahi, Rotorua",-38.13454347,176.2344573,BOP01_1,,0,,Pacific/Auckland,,,0,
20003141,3141,,Old Taupo Road - Fronting No. 14,"14 Old Taupo Road, Mangakakahi, Rotorua",-38.1267618,176.232262,BOP01_1,,0,,Pacific/Auckland,,,0,
20003142,3142,,Old Taupo Road - Moncur Drive,"Old Taupo Road, Springfield, Rotorua",-38.16124235306517,176.24236208681515,BOP01_1,,0,,Pacific/Auckland,,,0,
20003143,3143,,Old Taupo Road - Fronting No. 64,"66 Old Taupo Road, Mangakakahi, Rotorua",-38.13074429,176.2335006,BOP01_1,,0,,Pacific/Auckland,,,0,
20003144,3144,,Old Taupo Road - Fronting No.120 (SH 5),"120 Old Taupo Road, Mangakakahi, Rotorua",-38.13548335,176.2350052,BOP01_1,,0,,Pacific/Auckland,,,0,
20003145,3145,,Old Taupo Road - Fronting No.218,"218A Old Taupo Road, Hillcrest, Rotorua",-38.14639228,176.2384125,BOP01_1,,0,,Pacific/Auckland,,,0,
20003146,3146,,Rotorua Girls' High School,"247 Old Taupo Road, Hillcrest, Rotorua",-38.14569926,176.2379404,BOP01_1,,0,,Pacific/Auckland,,,0,
20003147,3147,,Old Taupo Road - Fronting No.24 (SH 5),"35 Old Taupo Road, Mangakakahi, Rotorua",-38.12771054,176.2322818,BOP01_1,,0,,Pacific/Auckland,,,0,
20003148,3148,,Old Taupo Road - Fronting No.385,"385 Old Taupo Road, Springfield, Rotorua",-38.15725948,176.2415409,BOP01_1,,0,,Pacific/Auckland,,,0,
20003149,3149,,Old Taupo Road - Fronting No.411,"411A Old Taupo Road, Springfield, Rotorua",-38.15947048,176.2421588,BOP01_1,,0,,Pacific/Auckland,,,0,
20003150,3150,,Old Taupo Road - Opposite No. 383,"385 Old Taupo Road, Springfield, Rotorua",-38.15717075,176.2417472,BOP01_1,,0,,Pacific/Auckland,,,0,
20003151,3151,,Orion Street - Fronting No. 3,"3 Orion Street, Sunnybrook, Rotorua",-38.14987435,176.2148478,BOP01_1,,0,,Pacific/Auckland,,,0,
20003152,3152,,Orion Street - Fronting No. 53,"59 Orion Street, Sunnybrook, Rotorua",-38.14546467,176.2155698,BOP01_1,,0,,Pacific/Auckland,,,0,
20003154,3154,,Otonga Road - Fronting No.30,"30A Otonga Road, Springfield, Rotorua",-38.1561393,176.2387881,BOP01_1,,0,,Pacific/Auckland,,,0,
20003155,3155,,Otonga Road - Kiwi Street,"107 Otonga Road, Springfield, Rotorua",-38.16334,176.233944,BOP01_1,,0,,Pacific/Auckland,,,0,
20003156,3156,,Pandora Avenue - Fronting No. 113,"113 Pandora Avenue, Sunnybrook, Rotorua",-38.14208966,176.2178779,BOP01_1,,0,,Pacific/Auckland,,,0,
20003157,3157,,Pegasus Drive - Fronting No. 69,"69 Pegasus Drive, Sunnybrook, Rotorua",-38.14932437,176.2121067,BOP01_1,,0,,Pacific/Auckland,,,0,
20003158,3158,,Pererika Street - Cnr Old Taupo Road,"86 Pererika Street, Victoria, Rotorua",-38.14071063,176.2368121,BOP01_1,,0,,Pacific/Auckland,,,0,
20003159,3159,,Pererika Street - Fronting No. 18,"18 Pererika Street, Victoria, Rotorua",-38.1407914223153,176.244805756093,BOP01_1,,0,,Pacific/Auckland,,,0,
20003160,3160,,Pererika Street - Opposite No.18,"18 Pererika Street, Victoria, Rotorua",-38.14071992,176.2448003,BOP01_1,,0,,Pacific/Auckland,,,0,
20003161,3161,,Pererika Street - Fronting No.70,"70 Pererika Street, Victoria, Rotorua",-38.14083827,176.2390995,BOP01_1,,0,,Pacific/Auckland,,,0,
20003162,3162,,Pererika Street - Opposite No. 72,"72 Pererika Street, Victoria, Rotorua",-38.14071058,176.2389867,BOP01_1,,0,,Pacific/Auckland,,,0,
20003164,3164,,Pohutukawa Drive - Fronting No. 109,"109 Pohutukawa Drive, Owhata, Rotorua",-38.12372448,176.3003324,BOP01_1,,0,,Pacific/Auckland,,,0,
20003165,3165,,Pohutukawa Drive - Opposite No. 56,"56A Pohutukawa Drive, Owhata, Rotorua",-38.12386382,176.3036659,BOP01_1,,0,,Pacific/Auckland,,,0,
20003166,3166,,Porikapa Road - Fronting No. 23-25,"25 Porikapa Road, Owhata, Rotorua",-38.13727451,176.3022546,BOP01_1,,0,,Pacific/Auckland,,,0,
20003167,3167,,Porikapa Road - Fronting No. 3,"3 Porikapa Road, Owhata, Rotorua",-38.1386941,176.3003851,BOP01_1,,0,,Pacific/Auckland,,,0,
20003168,3168,,Porikapa Road - Fronting No. 4,"4 Porikapa Road, Owhata, Rotorua",-38.13860973,176.3002961,BOP01_1,,0,,Pacific/Auckland,,,0,
20003169,3169,,Porikapa Road - Rotorua Lakes High School,"23 Porikapa Road, Owhata, Rotorua",-38.13721018,176.3021609,BOP01_1,,0,,Pacific/Auckland,,,0,
20003170,3170,,Pukehangi Road - Fronting No. 130,"130 Pukehangi Road, Pukehangi, Rotorua",-38.14013388,176.1987879,BOP01_1,,0,,Pacific/Auckland,,,0,
20003171,3171,,Pukehangi Road - Fronting No. 54,"54 Pukehangi Road, Pukehangi, Rotorua",-38.13565695,176.1956468,BOP01_1,,0,,Pacific/Auckland,,,0,
20003172,3172,,Pukehangi Road - Fronting No. 8,"8 Pukehangi Road, Pukehangi, Rotorua",-38.13319537,176.1943183,BOP01_1,,0,,Pacific/Auckland,,,0,
20003173,3173,,Pukehangi Road - Opposite No. 310,"290 Pukehangi Road, Sunnybrook, Rotorua",-38.14861071,176.2083626,BOP01_1,,0,,Pacific/Auckland,,,0,
20003174,3174,,Pukuatua Street - Opposite Rotorua Boys High School,"1589 Pukuatua Street, Rotorua",-38.13671246,176.2370095,BOP01_1,,0,,Pacific/Auckland,,,0,
20003175,3175,,Ranginui Street - Fronting No. 22,"22 Ranginui Street, Ngongotaha, Rotorua",-38.06778698,176.2162331,BOP01_1,,0,,Pacific/Auckland,,,0,
20003176,3176,,Ranginui Street - Camellia Drive,"62 Ranginui Street, Ngongotaha, Rotorua",-38.06545625,176.2142977,BOP01_1,,0,,Pacific/Auckland,,,0,
20003177,3177,,"122 Ranolf Street, Glenholme, Rotorua","122 Ranolf Street, Glenholme, Rotorua",-38.14730541,176.2471035,BOP01_1,,0,,Pacific/Auckland,,,0,
20003178,3178,,Ranolf Street - Cnr Arawa Street,"1286 Arawa Street, Rotorua",-38.13505995,176.2472534,BOP01_1,,0,,Pacific/Auckland,,,0,
20003179,3179,,"162 Ranolf Street, Glenholme, Rotorua","162 Ranolf Street, Glenholme, Rotorua",-38.1525644,176.247065,BOP01_1,,0,,Pacific/Auckland,,,0,
20003180,3180,,Ranolf Street - Fronting No. 1232,"1232 Ranolf Street, Rotorua",-38.13728029,176.2472097,BOP01_1,,0,,Pacific/Auckland,,,0,
20003181,3181,,Ranolf Street - Fronting No. 125,"125 Ranolf Street, Glenholme, Rotorua",-38.14754375,176.2469453,BOP01_1,,0,,Pacific/Auckland,,,0,
20003182,3182,,Ranolf Street - Fronting No. 185,"185A Ranolf Street, Glenholme, Rotorua",-38.15282049,176.2469529,BOP01_1,,0,,Pacific/Auckland,,,0,
20003183,3183,,Ranolf Street - Opposite No. 79,"79 Ranolf Street, Victoria, Rotorua",-38.14271898,176.2471212,BOP01_1,,0,,Pacific/Auckland,,,0,
20003184,3184,,Rewarewa Street - Fronting No. 30,"30 Rewarewa Street, Owhata, Rotorua",-38.1265528,176.3028118,BOP01_1,,0,,Pacific/Auckland,,,0,
20003185,3185,,Rewarewa Street - Fronting No. 33,"33 Rewarewa Street, Owhata, Rotorua",-38.12645339,176.303098,BOP01_1,,0,,Pacific/Auckland,,,0,
20003186,3186,,Robinson Avenue - Fronting No. 30,"30B Robinson Avenue, Holdens Bay, Rotorua",-38.12221739,176.3058303,BOP01_1,,0,,Pacific/Auckland,,,0,
20003187,3187,,Robinson Avenue - Opposite No.69,"2 Farnworth Avenue, Holdens Bay, Rotorua",-38.11979444,176.3029225,BOP01_1,,0,,Pacific/Auckland,,,0,
20003188,3188,,Rotorua Airport,"837 Te Ngae Road, Rotorua",-38.11090754,176.3171346,BOP01_1,,0,,Pacific/Auckland,,,0,
20003189,3189,,Rotorua Airport Terminal,"838 Te Ngae Road, Rotorua",-38.10902515,176.3179123,BOP01_1,,0,,Pacific/Auckland,,,0,
20003190,3190,,Rotorua Boys High School,"1612 Pukuatua Street, Utuhina, Rotorua",-38.13690323,176.2370609,BOP01_1,,0,,Pacific/Auckland,,,0,
20003191,3191,,Rotorua Central Mall - South,"1230B Amohau Street, Rotorua",-38.141118,176.248928,BOP01_1,,0,,Pacific/Auckland,,,0,
20003192,3192,,Rotorua Central Mall - North,Amohia Street,-38.141099,176.248746,BOP01_1,,0,,Pacific/Auckland,,,0,
20003193,3193,,Rotorua Hospital - North (Pukeroa Street),"Arawa Street, Rotorua",-38.1310802573678,176.248390125338,BOP01_1,,0,,Pacific/Auckland,,,0,
20003194,3194,,Rotorua Hospital - South (Pukeroa Street),"Arawa Street, Rotorua",-38.1311926501185,176.248453207185,BOP01_1,,0,,Pacific/Auckland,,,0,
20003195,3195,,Rotorua I-Site,"1167 Fenton Street, Rotorua",-38.1356661509773,176.253742144844,BOP01_1,,0,,Pacific/Auckland,,,0,
20003196,3196,,Ngongotaha School,"27C School Road, Ngongotaha, Rotorua",-38.07910745,176.2099435,BOP01_1,,0,,Pacific/Auckland,,,0,
20003197,3197,,School Road - Outside Trinity Church,"13 Hall Road, Ngongotaha, Rotorua",-38.08127804,176.2099615,BOP01_1,,0,,Pacific/Auckland,,,0,
20003199,3199,,Selwyn Road - Fronting No. 22,"22 Selwyn Road, Lynmore, Rotorua",-38.15003782,176.2890865,BOP01_1,,0,,Pacific/Auckland,,,0,
20003200,3200,,Sequoia Crescent - Fronting No. 14,"14 Sequoia Crescent, Owhata, Rotorua",-38.12578008,176.3020058,BOP01_1,,0,,Pacific/Auckland,,,0,
20003201,3201,,Sloane Avenue,"5 Sloane Avenue, Tihiotonga, Rotorua",-38.17269951,176.2412273,BOP01_1,,0,,Pacific/Auckland,,,0,
20003202,3202,,Springfield Road - Fronting No. 114,"114 Springfield Road, Springfield, Rotorua",-38.15936655,176.2279314,BOP01_1,,0,,Pacific/Auckland,,,0,
20003203,3203,,Springfield Road - Utuhina Road,"Springfield Rd, Rotorua",-38.15869022,176.225946,BOP01_1,,0,,Pacific/Auckland,,,0,
20003204,3204,,Steeles Lane - Fronting No. 3,"3 Steeles Lane, Western Heights, Rotorua",-38.12499904,176.2268089,BOP01_1,,0,,Pacific/Auckland,,,0,
20003205,3205,,Steeles Lane - Opposite No. 36,"33 Steeles Lane, Western Heights, Rotorua",-38.12226096,176.2246867,BOP01_1,,0,,Pacific/Auckland,,,0,
20003206,3206,,Sunrise Avenue - Fronting No. 12,"12 Sunrise Avenue, Owhata, Rotorua",-38.12887667,176.301201,BOP01_1,,0,,Pacific/Auckland,,,0,
20003207,3207,,Sunrise Avenue - Opposite No. 14,"11 Sunrise Avenue, Owhata, Rotorua",-38.12867222,176.3012836,BOP01_1,,0,,Pacific/Auckland,,,0,
20003208,3208,,Sunset Road - Fronting No. 189,"189 Sunset Road, Mangakakahi, Rotorua",-38.14067727,176.2191903,BOP01_1,,0,,Pacific/Auckland,,,0,
20003209,3209,,Sunset Road - Fronting No. 196,"196 Sunset Road, Mangakakahi, Rotorua",-38.14071496,176.2194171,BOP01_1,,0,,Pacific/Auckland,,,0,
20003210,3210,,Sunset Road - Fronting No. 231,"229 Sunset Road, Sunnybrook, Rotorua",-38.14183621,176.2168419,BOP01_1,,0,,Pacific/Auckland,,,0,
20003211,3211,,Sunset Road - Fronting No. 309,"309 Sunset Road, Sunnybrook, Rotorua",-38.14434545,176.2117943,BOP01_1,,0,,Pacific/Auckland,,,0,
20003212,3212,,Sunset Road - Fronting No. 419,"419A Sunset Road, Sunnybrook, Rotorua",-38.14613016,176.206045,BOP01_1,,0,,Pacific/Auckland,,,0,
20003213,3213,,Sunset Road - Fronting No. 66,"66 Sunset Road, Mangakakahi, Rotorua",-38.13558612,176.2297493,BOP01_1,,0,,Pacific/Auckland,,,0,
20003214,3214,,Sunset Road - Fronting No.105,"105 Sunset Road, Mangakakahi, Rotorua",-38.13716358,176.2262548,BOP01_1,,0,,Pacific/Auckland,,,0,
20003216,3216,,Sunset Road - Opposite No. 68,"68A Sunset Road, Mangakakahi, Rotorua",-38.13558651,176.2293608,BOP01_1,,0,,Pacific/Auckland,,,0,
20003217,3217,,Susan Street - Fronting No. 17,"17 Susan Street, Pukehangi, Rotorua",-38.13331075,176.2032967,BOP01_1,,0,,Pacific/Auckland,,,0,
20003218,3218,,Susan Street - Fronting No. 51,"51 Susan Street, Pukehangi, Rotorua",-38.1350434,176.2068851,BOP01_1,,0,,Pacific/Auckland,,,0,
20003219,3219,,Tarawera Road - Fronting No. 66,"2 Awatea Terrace, Lynmore, Rotorua",-38.1497015,176.2803972,BOP01_1,,0,,Pacific/Auckland,,,0,
20003220,3220,,Tarawera Road - Opposite No. 66,"6 Moana Terrace, Lynmore, Rotorua",-38.15020774,176.2810633,BOP01_1,,0,,Pacific/Auckland,,,0,
20003221,3221,,Tarewa Road - Fronting No. 47,"47 Tarewa Road, Rotorua",-38.13352021,176.2401473,BOP01_1,,0,,Pacific/Auckland,,,0,
20003222,3222,,Tarewa Road - Fronting No. 54,"54 Tarewa Road, Rotorua",-38.13392427,176.2400342,BOP01_1,,0,,Pacific/Auckland,,,0,
20003223,3223,,Tarewa Road - Fronting No. 6,"6 Tarewa Road, Rotorua",-38.12965079,176.2417662,BOP01_1,,0,,Pacific/Auckland,,,0,
20003224,3224,,Tarewa Road - Fronting No. 7,"7 Tarewa Road, Rotorua",-38.13013859,176.2415623,BOP01_1,,0,,Pacific/Auckland,,,0,
20003225,3225,,Tarewa Road - Fronting No. 70,"70 Tarewa Road, Rotorua",-38.13515413,176.2392557,BOP01_1,,0,,Pacific/Auckland,,,0,
20003226,3226,,Taui Street - Opposite No. 6,"5 Taui Street, Ngongotaha, Rotorua",-38.080812430683,176.21320639014,BOP01_1,,0,,Pacific/Auckland,,,0,
20003227,3227,,Te Ngae Road - Fronting No. 18,"18 White Street, Fenton Park, Rotorua",-38.14925454,176.2632965,BOP01_1,,0,,Pacific/Auckland,,,0,
20003228,3228,,Te Ngae Road - Fronting No. 238,"238 Te Ngae Road, Ngapuna, Rotorua",-38.14934019,176.272058,BOP01_1,,0,,Pacific/Auckland,,,0,
20003229,3229,,Te Ngae Road - Fronting No. 381,"381 Te Ngae Road, Owhata, Rotorua",-38.14083678,176.2875608,BOP01_1,,0,,Pacific/Auckland,,,0,
20003230,3230,,Te Ngae Road - Fronting No. 431,"1 Tumene Drive, Owhata, Rotorua",-38.13701113,176.2924246,BOP01_1,,0,,Pacific/Auckland,,,0,
20003231,3231,,Te Ngae Road - Fronting No. 497,"497A Te Ngae Road, Owhata, Rotorua",-38.13331571,176.2972311,BOP01_1,,0,,Pacific/Auckland,,,0,
20003232,3232,,Te Ngae Road - Fronting No. 524,"524 Te Ngae Road, Owhata, Rotorua",-38.13321688,176.2970898,BOP01_1,,0,,Pacific/Auckland,,,0,
20003233,3233,,Te Ngae Road - Fronting No. 542,"527 Te Ngae Road, Owhata, Rotorua",-38.13121992,176.299742,BOP01_1,,0,,Pacific/Auckland,,,0,
20003234,3234,,Te Ngae Road - Fronting No. 551,"551 Te Ngae Road, Owhata, Rotorua",-38.12964253,176.3021355,BOP01_1,,0,,Pacific/Auckland,,,0,
20003235,3235,,Te Ngae Road - Fronting No. 572,"572 Te Ngae Road, Owhata, Rotorua",-38.12909742,176.3025621,BOP01_1,,0,,Pacific/Auckland,,,0,
20003236,3236,,Te Ngae Road - Opposite Motion Entertainment,"353 Te Ngae Rd, Rotorua",-38.14315215,176.2842782,BOP01_1,,0,,Pacific/Auckland,,,0,
20003237,3237,,Te Ngae Road - Fronting No.279 (SH 30/30a),"279 Te Ngae Road, Lynmore, Rotorua",-38.14760997,176.277454,BOP01_1,,0,,Pacific/Auckland,,,0,
20003238,3238,,Te Ngae Road - Fronting No.626 (SH 30/30a),"626 Te Ngae Road, Owhata, Rotorua",-38.12516296,176.307704,BOP01_1,,0,,Pacific/Auckland,,,0,
20003239,3239,,Te Ngae Road - Opposite No.634 (SH 30/30a),"634 Te Ngae Road, Owhata, Rotorua",-38.12489959,176.3083459,BOP01_1,,0,,Pacific/Auckland,,,0,
20003240,3240,,Te Ngae Road - Opposite Lee Road,"684 Te Ngae Road, Owhata, Rotorua",-38.12116067,176.3140234,BOP01_1,,0,,Pacific/Auckland,,,0,
20003241,3241,,Te Ngae Road - Opposite No. 14,"12 White Street, Fenton Park, Rotorua",-38.14897886,176.2633429,BOP01_1,,0,,Pacific/Auckland,,,0,
20003242,3242,,Te Ngae Road - Opposite No. 252,"252 Te Ngae Road, Ngapuna, Rotorua",-38.14941353,176.2725606,BOP01_1,,0,,Pacific/Auckland,,,0,
20003243,3243,,Turner Drive - Fronting No. 100,"100 Turner Drive, Western Heights, Rotorua",-38.12802947,176.2087254,BOP01_1,,0,,Pacific/Auckland,,,0,
20003244,3244,,Turner Drive - Fronting No.21,"21 Turner Drive, Western Heights, Rotorua",-38.13006,176.208958,BOP01_1,,0,,Pacific/Auckland,,,0,
20003245,3245,,Vaughan Road - Fronting No. 36A,"36B Vaughan Road, Ngapuna, Rotorua",-38.14596449,176.2754008,BOP01_1,,0,,Pacific/Auckland,,,0,
20003246,3246,,Vaughan Road - Fronting No. 298,"298 Vaughan Road, Owhata, Rotorua",-38.13259665,176.2949231,BOP01_1,,0,,Pacific/Auckland,,,0,
20003247,3247,,Vaughan Road - Fronting No. 250,"252 Vaughan Road, Owhata, Rotorua",-38.13395296,176.2895689,BOP01_1,,0,,Pacific/Auckland,,,0,
20003248,3248,,Vaughan Road - Carrol Pl,"4 Kipling Crescent, Owhata, Rotorua",-38.13662049,176.2847215,BOP01_1,,0,,Pacific/Auckland,,,0,
20003249,3249,,Waiteti Road - Fronting No. 24,"20 Waiteti Road, Ngongotaha, Rotorua",-38.07066433,176.2103305,BOP01_1,,0,,Pacific/Auckland,,,0,
20003250,3250,,Waiteti Road - Fronting No.41,"35 Waiteti Road, Ngongotaha, Rotorua",-38.07043926,176.2114637,BOP01_1,,0,,Pacific/Auckland,,,0,
20003251,3251,,Waiteti Road - Fronting No.54,"54 Waiteti Road, Ngongotaha, Rotorua",-38.0702551,176.2149981,BOP01_1,,0,,Pacific/Auckland,,,0,
20003252,3252,,Warwick Drive - Fronting No. 26,"27 Warwick Drive, Lynmore, Rotorua",-38.14477569,176.290851,BOP01_1,,0,,Pacific/Auckland,,,0,
20003253,3253,,Warwick Drive - Fronting No. 27,"27 Warwick Drive, Lynmore, Rotorua",-38.14494906,176.2909845,BOP01_1,,0,,Pacific/Auckland,,,0,
20003254,3254,,Western Road - Fronting No. 3,"3 Western Road, Ngongotaha, Rotorua",-38.08171754,176.2114775,BOP01_1,,0,,Pacific/Auckland,,,0,
20003255,3255,,Western Road - Fronting No. 52,"52 Western Road, Ngongotaha, Rotorua",-38.0832922,176.203456,BOP01_1,,0,,Pacific/Auckland,,,0,
20003256,3256,,Western Road - Fronting No. 93,"93 Western Road, Ngongotaha, Rotorua",-38.08353591,176.1984945,BOP01_1,,0,,Pacific/Auckland,,,0,
20003257,3257,,Western Road - Opposite No. 52,"52 Western Road, Ngongotaha, Rotorua",-38.08341196,176.2034908,BOP01_1,,0,,Pacific/Auckland,,,0,
20003258,3258,,Western Road - Agrodome,"141 Western Road, Ngongotaha, Rotorua",-38.0860988904529,176.192372029642,BOP01_1,,0,,Pacific/Auckland,,,0,
20003259,3259,,Wharenui Road - Fronting No. 27,"27 Wharenui Road, Owhata, Rotorua",-38.13451503,176.3030867,BOP01_1,,0,,Pacific/Auckland,,,0,
20003260,3260,,Wharenui Road - Fronting No. 34,"32 Wharenui Road, Owhata, Rotorua",-38.13441841,176.3031905,BOP01_1,,0,,Pacific/Auckland,,,0,
20003261,3261,,Wikaraka Street - Fronting No. 1,"1 Wikaraka Street, Ngongotaha, Rotorua",-38.0792667,176.2157707,BOP01_1,,0,,Pacific/Auckland,,,0,
20003262,3262,,Wikaraka Street - Ngongotaha Road,"81 Wikaraka Street, Ngongotaha, Rotorua",-38.07272847,176.2088743,BOP01_1,,0,,Pacific/Auckland,,,0,
20003263,3263,,Wikaraka Street - Opposite No.44,"39 Wikaraka Street, Ngongotaha, Rotorua",-38.07477424,176.2134194,BOP01_1,,0,,Pacific/Auckland,,,0,
20003264,3264,,Waingaehe Reserve,"39 Willow Avenue, Hannahs Bay, Rotorua",-38.11735938,176.3042842,BOP01_1,,0,,Pacific/Auckland,,,0,
20003265,3265,,Wingrove Road - Fronting No. 18,"18 Wingrove Road, Owhata, Rotorua",-38.1327472,176.3035265,BOP01_1,,0,,Pacific/Auckland,,,0,
20003266,3266,,Wingrove Road - Fronting No. 27,"27 Wingrove Road, Owhata, Rotorua",-38.13267261,176.3033151,BOP01_1,,0,,Pacific/Auckland,,,0,
20003267,3267,,Wrigley Rd Fronting No. 27,"27 Wrigley Road, Fordlands, Rotorua",-38.140253,176.225486,BOP01_1,,0,,Pacific/Auckland,,,0,
20003268,3268,,Wrigley Road - Fronting No. 57,"57 Wrigley Road, Fordlands, Rotorua",-38.13915942,176.2280887,BOP01_1,,0,,Pacific/Auckland,,,0,
20003269,3269,,Wrigley Road - Fronting No. 85,"85 Wrigley Road, Fordlands, Rotorua",-38.13769058,176.2276156,BOP01_1,,0,,Pacific/Auckland,,,0,
20003270,3270,,Amohau Street - Ranoulf Street,"1289 Amohau Street, Rotorua",-38.13976891,176.2477918,BOP01_1,,0,,Pacific/Auckland,,,0,
20003271,3271,,King Street - Pretoria Street,"7 Pretoria Street, Victoria, Rotorua",-38.14313308,176.2458639,BOP01_1,,0,,Pacific/Auckland,,,0,
20003272,3272,,SH5 - Opposite Tumunui Road,"State Highway 5, Rotorua",-38.2262537451835,176.291273606164,BOP01_2,,0,,Pacific/Auckland,,,0,
20003273,3273,,Tumunui Road,"State Highway 5, Rotorua",-38.22632801818256,176.29160332296584,BOP01_2,,0,,Pacific/Auckland,,,0,
20003274,3274,,St John St - Hot Bread Shop,"43 St John Street, Opotiki",-38.0117914637308,177.287044348457,BOP02_1,,0,,Pacific/Auckland,,,0,
20003275,3275,,Mamaku - Tarena Street,"54 Tarena Street, Mamaku",-38.0983541938426,176.07797430842,BOP01_1,,0,,Pacific/Auckland,,,0,
20003276,3276,,Mamaku Street,"59 Mamaku Street, Mamaku",-38.0954782493305,176.076759594098,BOP01_1,,0,,Pacific/Auckland,,,0,
20003277,3277,,Mauku Street bus shelter,"20 Kaponga Street, Mamaku",-38.09605241511163,176.08143725224778,BOP01_1,,0,,Pacific/Auckland,,,0,
20003278,3278,,Western Road - Fronting No. 12,"12 Western Road, Ngongotaha, Rotorua",-38.0816106074581,176.211482257801,BOP01_1,,0,,Pacific/Auckland,,,0,
20003279,3279,,Wikaraka Street - Fronting No. 55,"55 Wikaraka Street, Rotorua",-38.07307401014594,176.21133107588753,BOP01_1,,0,,Pacific/Auckland,,,0,
20003280,3280,,Domain Rd - Cemetery,"80 Domain Rd, Whakatane",-37.9584356327667,176.984546637151,BOP00_6A,,0,,Pacific/Auckland,,,0,
20003281,3281,,SH38 - Dun Rd,State Highway 38,-38.4037404103642,176.506781900001,BOP01_3,,0,,Pacific/Auckland,,,0,
20003282,3282,,Selwyn Rd - Fairly Rd,"17 Selwyn Rd, Rotorua",-38.1499218,176.2890375,BOP01_1,,0,,Pacific/Auckland,,,0,
20003283,3283,,Petrie St - Fronting No 27,"27 Petrie Street, Rotorua",-38.1517090228602,176.2221050685909,BOP01_1,,0,,Pacific/Auckland,,,0,
20003284,3284,,Old Taupo Rd - Fronting No 290,"290 Old Taupo Rd, Rotorua",-38.1517694233891,176.239942412324,BOP01_1,,0,,Pacific/Auckland,,,0,
20003285,3285,,Otonga Rd - Fronting No 76,"76 Otonga Rd, Rotorua",-38.1592314536184,176.236643671781,BOP01_1,,0,,Pacific/Auckland,,,0,
20003286,3286,,"710 Te Ngae Road , Rotorua","710 Te Ngae Rd , Rotorua",-38.1155186555525,176.316133078806,BOP01_1,,0,,Pacific/Auckland,,,0,
20003287,3287,,Te Ngae Rd - Fronting No 488,"488 Te Ngae Rd, Rotorua",-38.1357085375319,176.293990310876,BOP01_1,,0,,Pacific/Auckland,,,0,
20003299,,,PROPOSED Pohutukawa Drive - Fronting No. 7,7 Pohutukawa Dr,-38.1266958253967,176.304884687681,BOP01_1,,0,,Pacific/Auckland,,,0,
20005553,5553,,Tauranga City - Art Gallery,"108 Willow Street, Tauranga",-37.683194,176.168919,BOP00_1A,,0,,Pacific/Auckland,,,0,
20005555,5555,,Ngongotah Road - Opposite No 308,,-38.08664644028695,176.2126743783462,BOP01_1,,0,,Pacific/Auckland,,,0,
20005556,5556,,Amohau Street - Fronting Kmart,"Amohau Street - Fronting Kmart, Rotorua",-38.138485,176.240964,BOP01_1,,0,,Pacific/Auckland,,,0,
20005557,5557,,Amohau Street - Fronting No 1489,"Amohau Street - Fronting No 1489, Rotorua",-38.137879,176.241183,BOP01_1,,0,,Pacific/Auckland,,,0,
20005558,5558,,The Warehouse Whakatane - Service Lane,Service Lane - The Warehouse Whakatane,-37.950845,176.99538,BOP00_6A,,0,,Pacific/Auckland,,,0,
20009000,9000,,OnDemand stop 1,,-37.706647602029,176.150538236569,BOP00_1A,,0,,Pacific/Auckland,,,0,
20009001,9001,,OnDemand stop 2,,-37.742959989004206,176.1241903975041,BOP00_1A,,0,,Pacific/Auckland,,,0,
20009002,9002,,OnDemand stop 3,,-37.76440383450961,176.10956303538063,BOP00_1A,,0,,Pacific/Auckland,,,0,
